{
   "type": "FeatureCollection",
   "features": [
  {
    "type": "Feature",
    "geometry": {
       "type": "Point",
       "coordinates":  [ -74.863403,40.181931 ]
    },
    "properties": {
    "Fuel Type Code":"ELEC",
    "NAME":"Peruzzi Nissan",
    "ADDRESS":"165 Lincoln Hwy",
    "Intersection Directions":"",
    "City":"Fairless Hills",
    "State":"PA",
    "ZIP":19030,
    "Plus4":"",
    "Groups With Access Code":"Public - Call ahead",
    "EV Level1 EVSE Num":null,
    "EV Level2 EVSE Num":1,
    "EV DC Fast Count":null,
    "EVNETWORK":"",
    "EV Connector Types":"J1772"
    }
  },
  {
    "type": "Feature",
    "geometry": {
       "type": "Point",
       "coordinates":  [ -75.2074839,40.134012 ]
    },
    "properties": {
    "Fuel Type Code":"ELEC",
    "NAME":"WEST GERMAN BMW",
    "ADDRESS":"500 Pennsylvania Ave",
    "Intersection Directions":"STATION 01; This station is reserved for use by BMW i3 drivers only",
    "City":"Fort Washington",
    "State":"PA",
    "ZIP":19034,
    "Plus4":"",
    "Groups With Access Code":"Public",
    "EV Level1 EVSE Num":null,
    "EV Level2 EVSE Num":2,
    "EV DC Fast Count":null,
    "EVNETWORK":"ChargePoint Network",
    "EV Connector Types":"J1772"
    }
  },
  {
    "type": "Feature",
    "geometry": {
       "type": "Point",
       "coordinates":  [ -79.922492,40.484469 ]
    },
    "properties": {
    "Fuel Type Code":"ELEC",
    "NAME":"Pittsburgh Zoo",
    "ADDRESS":"1 Wild Pl",
    "Intersection Directions":"",
    "City":"Pittsburgh",
    "State":"PA",
    "ZIP":15206,
    "Plus4":"",
    "Groups With Access Code":"Public",
    "EV Level1 EVSE Num":null,
    "EV Level2 EVSE Num":1,
    "EV DC Fast Count":null,
    "EVNETWORK":"",
    "EV Connector Types":"J1772"
    }
  },
  {
    "type": "Feature",
    "geometry": {
       "type": "Point",
       "coordinates":  [ -80.053036,40.610479 ]
    },
    "properties": {
    "Fuel Type Code":"ELEC",
    "NAME":"Wright Automotive Group",
    "ADDRESS":"10520 Perry Hwy",
    "Intersection Directions":"",
    "City":"Wexford",
    "State":"PA",
    "ZIP":15090,
    "Plus4":"",
    "Groups With Access Code":"Public - Call ahead",
    "EV Level1 EVSE Num":null,
    "EV Level2 EVSE Num":1,
    "EV DC Fast Count":1,
    "EVNETWORK":"",
    "EV Connector Types":"J1772 CHADEMO"
    }
  },
  {
    "type": "Feature",
    "geometry": {
       "type": "Point",
       "coordinates":  [ -75.1532359,40.005165 ]
    },
    "properties": {
    "Fuel Type Code":"ELEC",
    "NAME":"Temple University - Health Sciences Center",
    "ADDRESS":"3412-28 N Carlisle St",
    "Intersection Directions":"",
    "City":"Philadelphia",
    "State":"PA",
    "ZIP":19140,
    "Plus4":"",
    "Groups With Access Code":"Public",
    "EV Level1 EVSE Num":null,
    "EV Level2 EVSE Num":2,
    "EV DC Fast Count":null,
    "EVNETWORK":"Blink Network",
    "EV Connector Types":"J1772"
    }
  },
  {
    "type": "Feature",
    "geometry": {
       "type": "Point",
       "coordinates":  [ -75.172447,39.953094 ]
    },
    "properties": {
    "Fuel Type Code":"ELEC",
    "NAME":"1900 Market Street",
    "ADDRESS":"1900 Market Street",
    "Intersection Directions":"",
    "City":"Philadelphia",
    "State":"PA",
    "ZIP":19103,
    "Plus4":"",
    "Groups With Access Code":"Public",
    "EV Level1 EVSE Num":null,
    "EV Level2 EVSE Num":1,
    "EV DC Fast Count":null,
    "EVNETWORK":"Blink Network",
    "EV Connector Types":"J1772"
    }
  },
  {
    "type": "Feature",
    "geometry": {
       "type": "Point",
       "coordinates":  [ -79.9951949,40.441505 ]
    },
    "properties": {
    "Fuel Type Code":"ELEC",
    "NAME":"CARCHARGING",
    "ADDRESS":"600 Grant St",
    "Intersection Directions":"USX TOWER; Charging station is located on the Green Level, across from the pay station/elevator enclosure.",
    "City":"Pittsburgh",
    "State":"PA",
    "ZIP":15219,
    "Plus4":"",
    "Groups With Access Code":"Public",
    "EV Level1 EVSE Num":null,
    "EV Level2 EVSE Num":1,
    "EV DC Fast Count":null,
    "EVNETWORK":"ChargePoint Network",
    "EV Connector Types":"J1772"
    }
  },
  {
    "type": "Feature",
    "geometry": {
       "type": "Point",
       "coordinates":  [ -76.699133,39.981561 ]
    },
    "properties": {
    "Fuel Type Code":"ELEC",
    "NAME":"Apple Nissan",
    "ADDRESS":"1510 Whiteford Rd",
    "Intersection Directions":"",
    "City":"York",
    "State":"PA",
    "ZIP":17402,
    "Plus4":"",
    "Groups With Access Code":"Public - Call ahead",
    "EV Level1 EVSE Num":null,
    "EV Level2 EVSE Num":1,
    "EV DC Fast Count":null,
    "EVNETWORK":"",
    "EV Connector Types":"J1772"
    }
  },
  {
    "type": "Feature",
    "geometry": {
       "type": "Point",
       "coordinates":  [ -76.834656,40.836286 ]
    },
    "properties": {
    "Fuel Type Code":"ELEC",
    "NAME":"Northwoods Nissan",
    "ADDRESS":"2039 N Susquehanna Trail",
    "Intersection Directions":"",
    "City":"Hummels Wharf",
    "State":"PA",
    "ZIP":17831,
    "Plus4":"",
    "Groups With Access Code":"Public - Call ahead",
    "EV Level1 EVSE Num":null,
    "EV Level2 EVSE Num":1,
    "EV DC Fast Count":null,
    "EVNETWORK":"",
    "EV Connector Types":"J1772"
    }
  },
  {
    "type": "Feature",
    "geometry": {
       "type": "Point",
       "coordinates":  [ -75.1380703,40.1999256 ]
    },
    "properties": {
    "Fuel Type Code":"ELEC",
    "NAME":"Chapman Ford of Horsham",
    "ADDRESS":"1100 Easton Rd",
    "Intersection Directions":"",
    "City":"Horsham",
    "State":"PA",
    "ZIP":19044,
    "Plus4":"",
    "Groups With Access Code":"Public",
    "EV Level1 EVSE Num":null,
    "EV Level2 EVSE Num":2,
    "EV DC Fast Count":null,
    "EVNETWORK":"",
    "EV Connector Types":"J1772"
    }
  },
  {
    "type": "Feature",
    "geometry": {
       "type": "Point",
       "coordinates":  [ -75.2349309,39.8902261 ]
    },
    "properties": {
    "Fuel Type Code":"ELEC",
    "NAME":"PPA AIRPORT EV",
    "ADDRESS":"8219 Island Ave",
    "Intersection Directions":"ECONOMY LOT 3; Adjacent to the Economy Toll plaza. Parking is only permitted if the car is plugged in.",
    "City":"Philadelphia",
    "State":"PA",
    "ZIP":19153,
    "Plus4":"",
    "Groups With Access Code":"Public",
    "EV Level1 EVSE Num":null,
    "EV Level2 EVSE Num":2,
    "EV DC Fast Count":null,
    "EVNETWORK":"ChargePoint Network",
    "EV Connector Types":"J1772"
    }
  },
  {
    "type": "Feature",
    "geometry": {
       "type": "Point",
       "coordinates":  [ -76.9970542,40.2455185 ]
    },
    "properties": {
    "Fuel Type Code":"ELEC",
    "NAME":"Brenner Nissan",
    "ADDRESS":"6271 Carlisle Pike",
    "Intersection Directions":"",
    "City":"Mechanicsburg",
    "State":"PA",
    "ZIP":17050,
    "Plus4":"",
    "Groups With Access Code":"Public - Call ahead",
    "EV Level1 EVSE Num":null,
    "EV Level2 EVSE Num":1,
    "EV DC Fast Count":1,
    "EVNETWORK":"",
    "EV Connector Types":"J1772 CHADEMO"
    }
  },
  {
    "type": "Feature",
    "geometry": {
       "type": "Point",
       "coordinates":  [ -75.450645,40.1302949 ]
    },
    "properties": {
    "Fuel Type Code":"ELEC",
    "NAME":"Hilton Garden Inn - Tesla",
    "ADDRESS":"500 Cresson Blvd",
    "Intersection Directions":"",
    "City":"Phoenixville",
    "State":"PA",
    "ZIP":19460,
    "Plus4":"",
    "Groups With Access Code":"Public",
    "EV Level1 EVSE Num":null,
    "EV Level2 EVSE Num":1,
    "EV DC Fast Count":null,
    "EVNETWORK":"Tesla",
    "EV Connector Types":"TESLA"
    }
  },
  {
    "type": "Feature",
    "geometry": {
       "type": "Point",
       "coordinates":  [ -79.933985,40.448882 ]
    },
    "properties": {
    "Fuel Type Code":"ELEC",
    "NAME":"Shadyside Inn - Tesla",
    "ADDRESS":"5405 Fifth Ave",
    "Intersection Directions":"",
    "City":"Pittsburgh",
    "State":"PA",
    "ZIP":15232,
    "Plus4":"",
    "Groups With Access Code":"Public",
    "EV Level1 EVSE Num":null,
    "EV Level2 EVSE Num":2,
    "EV DC Fast Count":null,
    "EVNETWORK":"Tesla",
    "EV Connector Types":"TESLA"
    }
  },
  {
    "type": "Feature",
    "geometry": {
       "type": "Point",
       "coordinates":  [ -75.5626398,40.5999325 ]
    },
    "properties": {
    "Fuel Type Code":"ELEC",
    "NAME":"DANIELS BMW",
    "ADDRESS":"4600 Crackersport Rd",
    "Intersection Directions":"STATION 01",
    "City":"Allentown",
    "State":"PA",
    "ZIP":18104,
    "Plus4":"",
    "Groups With Access Code":"Public",
    "EV Level1 EVSE Num":null,
    "EV Level2 EVSE Num":2,
    "EV DC Fast Count":null,
    "EVNETWORK":"ChargePoint Network",
    "EV Connector Types":"J1772"
    }
  },
  {
    "type": "Feature",
    "geometry": {
       "type": "Point",
       "coordinates":  [ -76.70243073,39.90974045 ]
    },
    "properties": {
    "Fuel Type Code":"ELEC",
    "NAME":"Arbys - York",
    "ADDRESS":"2600 Keyway Drive",
    "Intersection Directions":"",
    "City":"York",
    "State":"PA",
    "ZIP":17407,
    "Plus4":"",
    "Groups With Access Code":"Public - Card key at all times",
    "EV Level1 EVSE Num":null,
    "EV Level2 EVSE Num":null,
    "EV DC Fast Count":1,
    "EVNETWORK":"eVgo Network",
    "EV Connector Types":"J1772COMBO"
    }
  },
  {
    "type": "Feature",
    "geometry": {
       "type": "Point",
       "coordinates":  [ -79.759899,40.436464 ]
    },
    "properties": {
    "Fuel Type Code":"ELEC",
    "NAME":"University of Pittsburgh Medical Center East",
    "ADDRESS":"2775 Mosside Blvd",
    "Intersection Directions":"Route 22 and Mosside",
    "City":"Monroeville",
    "State":"PA",
    "ZIP":15146,
    "Plus4":"",
    "Groups With Access Code":"Public",
    "EV Level1 EVSE Num":null,
    "EV Level2 EVSE Num":2,
    "EV DC Fast Count":null,
    "EVNETWORK":"",
    "EV Connector Types":"J1772"
    }
  },
  {
    "type": "Feature",
    "geometry": {
       "type": "Point",
       "coordinates":  [ -80.0180996,40.4456737 ]
    },
    "properties": {
    "Fuel Type Code":"ELEC",
    "NAME":"Carnegie Science Center",
    "ADDRESS":"One Allegheny Ave ",
    "Intersection Directions":"Across from Heinz Field",
    "City":"Pittsburgh",
    "State":"PA",
    "ZIP":15212,
    "Plus4":"",
    "Groups With Access Code":"Public",
    "EV Level1 EVSE Num":null,
    "EV Level2 EVSE Num":1,
    "EV DC Fast Count":null,
    "EVNETWORK":"",
    "EV Connector Types":"J1772"
    }
  },
  {
    "type": "Feature",
    "geometry": {
       "type": "Point",
       "coordinates":  [ -75.210552,40.0068973 ]
    },
    "properties": {
    "Fuel Type Code":"ELEC",
    "NAME":"Crowne Plaza - Tesla",
    "ADDRESS":"4010 City Ave",
    "Intersection Directions":"",
    "City":"Philadelphia",
    "State":"PA",
    "ZIP":19131,
    "Plus4":"",
    "Groups With Access Code":"Public",
    "EV Level1 EVSE Num":null,
    "EV Level2 EVSE Num":2,
    "EV DC Fast Count":null,
    "EVNETWORK":"Tesla",
    "EV Connector Types":"TESLA"
    }
  },
  {
    "type": "Feature",
    "geometry": {
       "type": "Point",
       "coordinates":  [ -80.10387,40.66973461 ]
    },
    "properties": {
    "Fuel Type Code":"ELEC",
    "NAME":"Eaton Corp",
    "ADDRESS":"130 Commonwealth Dr",
    "Intersection Directions":"",
    "City":"Warrendale",
    "State":"PA",
    "ZIP":15086,
    "Plus4":"",
    "Groups With Access Code":"Public",
    "EV Level1 EVSE Num":null,
    "EV Level2 EVSE Num":4,
    "EV DC Fast Count":1,
    "EVNETWORK":"",
    "EV Connector Types":"J1772 CHADEMO"
    }
  },
  {
    "type": "Feature",
    "geometry": {
       "type": "Point",
       "coordinates":  [ -80.151447,40.441322 ]
    },
    "properties": {
    "Fuel Type Code":"ELEC",
    "NAME":"Giant Eagle - Settlers Ridge",
    "ADDRESS":"100 Settlers Ridge Centre Dr",
    "Intersection Directions":"Campbell Run Rd and Settler Ridge",
    "City":"Pittsburgh",
    "State":"PA",
    "ZIP":15205,
    "Plus4":"",
    "Groups With Access Code":"Public",
    "EV Level1 EVSE Num":null,
    "EV Level2 EVSE Num":2,
    "EV DC Fast Count":null,
    "EVNETWORK":"",
    "EV Connector Types":"J1772"
    }
  },
  {
    "type": "Feature",
    "geometry": {
       "type": "Point",
       "coordinates":  [ -75.076654,40.0232354 ]
    },
    "properties": {
    "Fuel Type Code":"ELEC",
    "NAME":"Walgreens - Philadelphia, PA #5522",
    "ADDRESS":"1607 Bridge St",
    "Intersection Directions":"",
    "City":"Philadelphia",
    "State":"PA",
    "ZIP":19124,
    "Plus4":"",
    "Groups With Access Code":"Public - Card key at all times",
    "EV Level1 EVSE Num":null,
    "EV Level2 EVSE Num":1,
    "EV DC Fast Count":null,
    "EVNETWORK":"SemaCharge Network",
    "EV Connector Types":"J1772"
    }
  },
  {
    "type": "Feature",
    "geometry": {
       "type": "Point",
       "coordinates":  [ -75.3718424,40.1018105 ]
    },
    "properties": {
    "Fuel Type Code":"ELEC",
    "NAME":"UPPER MERION TW",
    "ADDRESS":"175 W Valley Forge Rd",
    "Intersection Directions":"STATION 3\nSTATION 2\nSTATION 4\nSTATION 1",
    "City":"King of Prussia",
    "State":"PA",
    "ZIP":19406,
    "Plus4":"",
    "Groups With Access Code":"Public",
    "EV Level1 EVSE Num":null,
    "EV Level2 EVSE Num":4,
    "EV DC Fast Count":null,
    "EVNETWORK":"ChargePoint Network",
    "EV Connector Types":"J1772"
    }
  },
  {
    "type": "Feature",
    "geometry": {
       "type": "Point",
       "coordinates":  [ -75.1890916,39.9580902 ]
    },
    "properties": {
    "Fuel Type Code":"ELEC",
    "NAME":"Drexel University",
    "ADDRESS":"115 N. 33rd Street",
    "Intersection Directions":"",
    "City":"Philadelphia",
    "State":"PA",
    "ZIP":19104,
    "Plus4":"",
    "Groups With Access Code":"Public",
    "EV Level1 EVSE Num":null,
    "EV Level2 EVSE Num":2,
    "EV DC Fast Count":null,
    "EVNETWORK":"Blink Network",
    "EV Connector Types":"J1772"
    }
  },
  {
    "type": "Feature",
    "geometry": {
       "type": "Point",
       "coordinates":  [ -75.3093429,40.1032386 ]
    },
    "properties": {
    "Fuel Type Code":"ELEC",
    "NAME":"Porsche Conshohocken",
    "ADDRESS":"1316 Ridge Pike",
    "Intersection Directions":"",
    "City":"Conshohocken",
    "State":"PA",
    "ZIP":19428,
    "Plus4":"",
    "Groups With Access Code":"Public",
    "EV Level1 EVSE Num":null,
    "EV Level2 EVSE Num":1,
    "EV DC Fast Count":null,
    "EVNETWORK":"",
    "EV Connector Types":"J1772"
    }
  },
  {
    "type": "Feature",
    "geometry": {
       "type": "Point",
       "coordinates":  [ -75.0323584,40.0401468 ]
    },
    "properties": {
    "Fuel Type Code":"ELEC",
    "NAME":"Dunphy Motors",
    "ADDRESS":"7700 Frankford Ave",
    "Intersection Directions":"",
    "City":"Philadelphia",
    "State":"PA",
    "ZIP":19136,
    "Plus4":"",
    "Groups With Access Code":"Public",
    "EV Level1 EVSE Num":null,
    "EV Level2 EVSE Num":2,
    "EV DC Fast Count":null,
    "EVNETWORK":"",
    "EV Connector Types":"J1772"
    }
  },
  {
    "type": "Feature",
    "geometry": {
       "type": "Point",
       "coordinates":  [ -76.72822571,39.96288681 ]
    },
    "properties": {
    "Fuel Type Code":"ELEC",
    "NAME":"Curbside City",
    "ADDRESS":"16 George Street",
    "Intersection Directions":"",
    "City":"York",
    "State":"PA",
    "ZIP":17401,
    "Plus4":"",
    "Groups With Access Code":"Public - Card key at all times",
    "EV Level1 EVSE Num":null,
    "EV Level2 EVSE Num":null,
    "EV DC Fast Count":1,
    "EVNETWORK":"eVgo Network",
    "EV Connector Types":"J1772COMBO"
    }
  },
  {
    "type": "Feature",
    "geometry": {
       "type": "Point",
       "coordinates":  [ -77.0498328,40.2396296 ]
    },
    "properties": {
    "Fuel Type Code":"ELEC",
    "NAME":"SUN MOTOR CARS",
    "ADDRESS":"6691 Carlisle Pike",
    "Intersection Directions":"STATION 01",
    "City":"Mechanicsburg",
    "State":"PA",
    "ZIP":17050,
    "Plus4":"",
    "Groups With Access Code":"Public",
    "EV Level1 EVSE Num":null,
    "EV Level2 EVSE Num":2,
    "EV DC Fast Count":null,
    "EVNETWORK":"ChargePoint Network",
    "EV Connector Types":"J1772"
    }
  },
  {
    "type": "Feature",
    "geometry": {
       "type": "Point",
       "coordinates":  [ -75.1061373,40.2107819 ]
    },
    "properties": {
    "Fuel Type Code":"ELEC",
    "NAME":"O'NEIL NISSAN",
    "ADDRESS":"849 W. Street Rd.",
    "Intersection Directions":"QUICK CHARGER1; Located on the east side of the building between the showroom and the service drive through",
    "City":"Warminster",
    "State":"PA",
    "ZIP":18974,
    "Plus4":"",
    "Groups With Access Code":"Public",
    "EV Level1 EVSE Num":null,
    "EV Level2 EVSE Num":null,
    "EV DC Fast Count":1,
    "EVNETWORK":"ChargePoint Network",
    "EV Connector Types":"CHADEMO"
    }
  },
  {
    "type": "Feature",
    "geometry": {
       "type": "Point",
       "coordinates":  [ -75.9523496,40.3095253 ]
    },
    "properties": {
    "Fuel Type Code":"ELEC",
    "NAME":"Tom Masano Ford Lincoln",
    "ADDRESS":"1600 Lancaster Ave",
    "Intersection Directions":"",
    "City":"Reading",
    "State":"PA",
    "ZIP":19607,
    "Plus4":"",
    "Groups With Access Code":"Public - Call ahead",
    "EV Level1 EVSE Num":null,
    "EV Level2 EVSE Num":1,
    "EV DC Fast Count":null,
    "EVNETWORK":"",
    "EV Connector Types":"J1772"
    }
  },
  {
    "type": "Feature",
    "geometry": {
       "type": "Point",
       "coordinates":  [ -75.5796284,40.0346915 ]
    },
    "properties": {
    "Fuel Type Code":"ELEC",
    "NAME":"Hampton Inn - Tesla",
    "ADDRESS":"635 Lancaster Ave",
    "Intersection Directions":"",
    "City":"Frazer",
    "State":"PA",
    "ZIP":19355,
    "Plus4":"",
    "Groups With Access Code":"Public",
    "EV Level1 EVSE Num":null,
    "EV Level2 EVSE Num":2,
    "EV DC Fast Count":null,
    "EVNETWORK":"Tesla",
    "EV Connector Types":"TESLA"
    }
  },
  {
    "type": "Feature",
    "geometry": {
       "type": "Point",
       "coordinates":  [ -76.822591,40.278091 ]
    },
    "properties": {
    "Fuel Type Code":"ELEC",
    "NAME":"Sheetz Store #523",
    "ADDRESS":"4001 Union Deposit Rd",
    "Intersection Directions":"",
    "City":"Harrisburg",
    "State":"PA",
    "ZIP":17109,
    "Plus4":"",
    "Groups With Access Code":"Public",
    "EV Level1 EVSE Num":null,
    "EV Level2 EVSE Num":null,
    "EV DC Fast Count":1,
    "EVNETWORK":"",
    "EV Connector Types":"CHADEMO"
    }
  },
  {
    "type": "Feature",
    "geometry": {
       "type": "Point",
       "coordinates":  [ -76.833589,41.247703 ]
    },
    "properties": {
    "Fuel Type Code":"ELEC",
    "NAME":"Alexander Nissan",
    "ADDRESS":"10 Alexander Dr",
    "Intersection Directions":"",
    "City":"Muncy",
    "State":"PA",
    "ZIP":17756,
    "Plus4":"",
    "Groups With Access Code":"Public - Call ahead",
    "EV Level1 EVSE Num":null,
    "EV Level2 EVSE Num":1,
    "EV DC Fast Count":null,
    "EVNETWORK":"",
    "EV Connector Types":"J1772"
    }
  },
  {
    "type": "Feature",
    "geometry": {
       "type": "Point",
       "coordinates":  [ -75.3844391,40.6121611 ]
    },
    "properties": {
    "Fuel Type Code":"ELEC",
    "NAME":"The Sayre Mansion",
    "ADDRESS":"250 Wyandotte St",
    "Intersection Directions":"",
    "City":"Bethlehem",
    "State":"PA",
    "ZIP":18015,
    "Plus4":"",
    "Groups With Access Code":"Public",
    "EV Level1 EVSE Num":null,
    "EV Level2 EVSE Num":2,
    "EV DC Fast Count":null,
    "EVNETWORK":"Tesla",
    "EV Connector Types":"TESLA J1772"
    }
  },
  {
    "type": "Feature",
    "geometry": {
       "type": "Point",
       "coordinates":  [ -75.3093256,40.1462627 ]
    },
    "properties": {
    "Fuel Type Code":"ELEC",
    "NAME":"Walgreens - East Norriton, PA #7366",
    "ADDRESS":"3308 Dekalb Pike",
    "Intersection Directions":"",
    "City":"East Norriton",
    "State":"PA",
    "ZIP":19401,
    "Plus4":"",
    "Groups With Access Code":"Public - Card key at all times",
    "EV Level1 EVSE Num":null,
    "EV Level2 EVSE Num":1,
    "EV DC Fast Count":null,
    "EVNETWORK":"SemaCharge Network",
    "EV Connector Types":"J1772"
    }
  },
  {
    "type": "Feature",
    "geometry": {
       "type": "Point",
       "coordinates":  [ -75.5610309,40.5884531 ]
    },
    "properties": {
    "Fuel Type Code":"ELEC",
    "NAME":"Tilghman Square Shopping Center - Tesla",
    "ADDRESS":"4680 Broadway",
    "Intersection Directions":"",
    "City":"Allentown",
    "State":"PA",
    "ZIP":18104,
    "Plus4":"",
    "Groups With Access Code":"Public",
    "EV Level1 EVSE Num":null,
    "EV Level2 EVSE Num":null,
    "EV DC Fast Count":8,
    "EVNETWORK":"Tesla",
    "EV Connector Types":"TESLA"
    }
  },
  {
    "type": "Feature",
    "geometry": {
       "type": "Point",
       "coordinates":  [ -75.1832052,41.4816065 ]
    },
    "properties": {
    "Fuel Type Code":"ELEC",
    "NAME":"The Settlers Inn - Tesla",
    "ADDRESS":"4 Main Ave",
    "Intersection Directions":"",
    "City":"Hawley",
    "State":"PA",
    "ZIP":18428,
    "Plus4":"",
    "Groups With Access Code":"Public",
    "EV Level1 EVSE Num":null,
    "EV Level2 EVSE Num":1,
    "EV DC Fast Count":null,
    "EVNETWORK":"Tesla",
    "EV Connector Types":"TESLA"
    }
  },
  {
    "type": "Feature",
    "geometry": {
       "type": "Point",
       "coordinates":  [ -75.0898359,40.0438624 ]
    },
    "properties": {
    "Fuel Type Code":"ELEC",
    "NAME":"STATION#1",
    "ADDRESS":"700 Robbins St",
    "Intersection Directions":"STATION1",
    "City":"Philadelphia",
    "State":"PA",
    "ZIP":19111,
    "Plus4":"",
    "Groups With Access Code":"Public",
    "EV Level1 EVSE Num":null,
    "EV Level2 EVSE Num":1,
    "EV DC Fast Count":null,
    "EVNETWORK":"ChargePoint Network",
    "EV Connector Types":"J1772"
    }
  },
  {
    "type": "Feature",
    "geometry": {
       "type": "Point",
       "coordinates":  [ -75.31392,39.92468 ]
    },
    "properties": {
    "Fuel Type Code":"ELEC",
    "NAME":"Springfield Ford Lincoln",
    "ADDRESS":"50 Baltimore Pike",
    "Intersection Directions":"",
    "City":"Springfield",
    "State":"PA",
    "ZIP":19064,
    "Plus4":"",
    "Groups With Access Code":"Public - Call ahead",
    "EV Level1 EVSE Num":null,
    "EV Level2 EVSE Num":1,
    "EV DC Fast Count":null,
    "EVNETWORK":"",
    "EV Connector Types":"J1772"
    }
  },
  {
    "type": "Feature",
    "geometry": {
       "type": "Point",
       "coordinates":  [ -75.6756306,40.069057 ]
    },
    "properties": {
    "Fuel Type Code":"ELEC",
    "NAME":"Hilton Garden",
    "ADDRESS":"720 Eagleview Drive",
    "Intersection Directions":"",
    "City":"Exton",
    "State":"PA",
    "ZIP":19341,
    "Plus4":"",
    "Groups With Access Code":"Public",
    "EV Level1 EVSE Num":null,
    "EV Level2 EVSE Num":2,
    "EV DC Fast Count":null,
    "EVNETWORK":"SemaCharge Network",
    "EV Connector Types":"J1772"
    }
  },
  {
    "type": "Feature",
    "geometry": {
       "type": "Point",
       "coordinates":  [ -76.2212428,40.0255435 ]
    },
    "properties": {
    "Fuel Type Code":"ELEC",
    "NAME":"TANGER",
    "ADDRESS":"311 Stanley K Tanger Dr",
    "Intersection Directions":"LANCASTER EV1; In front of Johnston and Murphy near Shopper Services \nLANCASTER EV2; In front of Jared Vault near Shoppers Services",
    "City":"Lancaster",
    "State":"PA",
    "ZIP":17602,
    "Plus4":"",
    "Groups With Access Code":"Public",
    "EV Level1 EVSE Num":null,
    "EV Level2 EVSE Num":4,
    "EV DC Fast Count":null,
    "EVNETWORK":"ChargePoint Network",
    "EV Connector Types":"J1772"
    }
  },
  {
    "type": "Feature",
    "geometry": {
       "type": "Point",
       "coordinates":  [ -76.4267564,41.0247709 ]
    },
    "properties": {
    "Fuel Type Code":"ELEC",
    "NAME":"The Inn at Turkey Hill and Brewing Co - Tesla",
    "ADDRESS":"991 Central Rd",
    "Intersection Directions":"",
    "City":"Bloomsburg",
    "State":"PA",
    "ZIP":17815,
    "Plus4":"",
    "Groups With Access Code":"Public",
    "EV Level1 EVSE Num":null,
    "EV Level2 EVSE Num":2,
    "EV DC Fast Count":null,
    "EVNETWORK":"Tesla",
    "EV Connector Types":"TESLA"
    }
  },
  {
    "type": "Feature",
    "geometry": {
       "type": "Point",
       "coordinates":  [ -79.962353,40.444069 ]
    },
    "properties": {
    "Fuel Type Code":"ELEC",
    "NAME":"University of Pittsburgh Medical Center - Montefiore Hospital Parking Garage",
    "ADDRESS":"Buffalo St",
    "Intersection Directions":"Enter garage from main driveway (Buffalo) off of Terrace Street",
    "City":"Pittsburgh",
    "State":"PA",
    "ZIP":15213,
    "Plus4":"",
    "Groups With Access Code":"Public",
    "EV Level1 EVSE Num":null,
    "EV Level2 EVSE Num":2,
    "EV DC Fast Count":null,
    "EVNETWORK":"",
    "EV Connector Types":"J1772"
    }
  },
  {
    "type": "Feature",
    "geometry": {
       "type": "Point",
       "coordinates":  [ -76.4064643,40.3115693 ]
    },
    "properties": {
    "Fuel Type Code":"ELEC",
    "NAME":"VAHPA",
    "ADDRESS":"1700 S Lincoln Ave",
    "Intersection Directions":"STATION1",
    "City":"Lebanon",
    "State":"PA",
    "ZIP":17042,
    "Plus4":"",
    "Groups With Access Code":"Public",
    "EV Level1 EVSE Num":null,
    "EV Level2 EVSE Num":1,
    "EV DC Fast Count":null,
    "EVNETWORK":"ChargePoint Network",
    "EV Connector Types":"J1772"
    }
  },
  {
    "type": "Feature",
    "geometry": {
       "type": "Point",
       "coordinates":  [ -75.11828613,40.14368057 ]
    },
    "properties": {
    "Fuel Type Code":"ELEC",
    "NAME":"Willow Grove Shopping Center",
    "ADDRESS":"30 Park Ave",
    "Intersection Directions":"",
    "City":"Willow Grove",
    "State":"PA",
    "ZIP":19090,
    "Plus4":"",
    "Groups With Access Code":"Public - Card key at all times",
    "EV Level1 EVSE Num":null,
    "EV Level2 EVSE Num":null,
    "EV DC Fast Count":1,
    "EVNETWORK":"eVgo Network",
    "EV Connector Types":"J1772COMBO"
    }
  },
  {
    "type": "Feature",
    "geometry": {
       "type": "Point",
       "coordinates":  [ -79.9899263,40.439228 ]
    },
    "properties": {
    "Fuel Type Code":"ELEC",
    "NAME":"University of Pittsburgh Medical Center - Towerview Garage",
    "ADDRESS":"1001 Fifth Ave",
    "Intersection Directions":"",
    "City":"Pittsburgh",
    "State":"PA",
    "ZIP":15219,
    "Plus4":"",
    "Groups With Access Code":"Public",
    "EV Level1 EVSE Num":null,
    "EV Level2 EVSE Num":2,
    "EV DC Fast Count":null,
    "EVNETWORK":"",
    "EV Connector Types":"J1772"
    }
  },
  {
    "type": "Feature",
    "geometry": {
       "type": "Point",
       "coordinates":  [ -75.3046043,40.2542481 ]
    },
    "properties": {
    "Fuel Type Code":"ELEC",
    "NAME":"Exxon - Lehigh Gas Station and Convenience Store",
    "ADDRESS":"1419 W Main St",
    "Intersection Directions":"Charger located in front of the building. ",
    "City":"Lansdale",
    "State":"PA",
    "ZIP":19446,
    "Plus4":"",
    "Groups With Access Code":"Public",
    "EV Level1 EVSE Num":null,
    "EV Level2 EVSE Num":4,
    "EV DC Fast Count":null,
    "EVNETWORK":"",
    "EV Connector Types":"J1772"
    }
  },
  {
    "type": "Feature",
    "geometry": {
       "type": "Point",
       "coordinates":  [ -77.2618187,39.8423436 ]
    },
    "properties": {
    "Fuel Type Code":"ELEC",
    "NAME":"Inn at Herr Ridge - Tesla",
    "ADDRESS":"900 Chambersburg Rd",
    "Intersection Directions":"",
    "City":"Gettysburg",
    "State":"PA",
    "ZIP":17325,
    "Plus4":"",
    "Groups With Access Code":"Public",
    "EV Level1 EVSE Num":null,
    "EV Level2 EVSE Num":1,
    "EV DC Fast Count":null,
    "EVNETWORK":"Tesla",
    "EV Connector Types":"TESLA"
    }
  },
  {
    "type": "Feature",
    "geometry": {
       "type": "Point",
       "coordinates":  [ -75.1617215,40.0819893 ]
    },
    "properties": {
    "Fuel Type Code":"ELEC",
    "NAME":"STATION175",
    "ADDRESS":"Greenwood Ave",
    "Intersection Directions":"175TAW; The station is in front of the main office",
    "City":"Wyncote",
    "State":"PA",
    "ZIP":19095,
    "Plus4":"",
    "Groups With Access Code":"Public",
    "EV Level1 EVSE Num":null,
    "EV Level2 EVSE Num":2,
    "EV DC Fast Count":null,
    "EVNETWORK":"ChargePoint Network",
    "EV Connector Types":"J1772"
    }
  },
  {
    "type": "Feature",
    "geometry": {
       "type": "Point",
       "coordinates":  [ -79.99496,40.446578 ]
    },
    "properties": {
    "Fuel Type Code":"ELEC",
    "NAME":"David L Lawrence Convention Center Garage",
    "ADDRESS":"1000 Ft Duquesne Blvd",
    "Intersection Directions":"",
    "City":"Pittsburgh",
    "State":"PA",
    "ZIP":15222,
    "Plus4":"",
    "Groups With Access Code":"Public",
    "EV Level1 EVSE Num":null,
    "EV Level2 EVSE Num":2,
    "EV DC Fast Count":null,
    "EVNETWORK":"",
    "EV Connector Types":"J1772"
    }
  },
  {
    "type": "Feature",
    "geometry": {
       "type": "Point",
       "coordinates":  [ -75.1387741,39.9133512 ]
    },
    "properties": {
    "Fuel Type Code":"ELEC",
    "NAME":"Southport Plaza",
    "ADDRESS":"1600 S Delaware Ave",
    "Intersection Directions":"",
    "City":"Philadelphia",
    "State":"PA",
    "ZIP":19148,
    "Plus4":"",
    "Groups With Access Code":"Public",
    "EV Level1 EVSE Num":null,
    "EV Level2 EVSE Num":null,
    "EV DC Fast Count":2,
    "EVNETWORK":"Greenlots",
    "EV Connector Types":"CHADEMO J1772COMBO"
    }
  },
  {
    "type": "Feature",
    "geometry": {
       "type": "Point",
       "coordinates":  [ -75.3192275,39.8692689 ]
    },
    "properties": {
    "Fuel Type Code":"ELEC",
    "NAME":"ROYAL FARMS",
    "ADDRESS":"105 S Stewart Ave",
    "Intersection Directions":"RFS 202 DC #1; DC Fast Charge, 100 mile range per hour of charging, SAE Combo connector for BMW i3 and VW e-Golf, located on left side of Royal Farms store",
    "City":"Ridley Park",
    "State":"PA",
    "ZIP":19078,
    "Plus4":"",
    "Groups With Access Code":"Public",
    "EV Level1 EVSE Num":null,
    "EV Level2 EVSE Num":null,
    "EV DC Fast Count":1,
    "EVNETWORK":"ChargePoint Network",
    "EV Connector Types":"J1772COMBO"
    }
  },
  {
    "type": "Feature",
    "geometry": {
       "type": "Point",
       "coordinates":  [ -75.3122875,41.0478287 ]
    },
    "properties": {
    "Fuel Type Code":"ELEC",
    "NAME":"The Crossings Premium Outlets - Tesla",
    "ADDRESS":"1000 Premium Outlets Dr",
    "Intersection Directions":"",
    "City":"Tannersville",
    "State":"PA",
    "ZIP":18372,
    "Plus4":"",
    "Groups With Access Code":"Public",
    "EV Level1 EVSE Num":null,
    "EV Level2 EVSE Num":null,
    "EV DC Fast Count":8,
    "EVNETWORK":"Tesla",
    "EV Connector Types":"TESLA"
    }
  },
  {
    "type": "Feature",
    "geometry": {
       "type": "Point",
       "coordinates":  [ -77.901668,39.8232002 ]
    },
    "properties": {
    "Fuel Type Code":"ELEC",
    "NAME":"The Mercersburg Inn - Tesla",
    "ADDRESS":"405 S Main St",
    "Intersection Directions":"",
    "City":"Mercersburg",
    "State":"PA",
    "ZIP":17236,
    "Plus4":"",
    "Groups With Access Code":"Public",
    "EV Level1 EVSE Num":null,
    "EV Level2 EVSE Num":1,
    "EV DC Fast Count":null,
    "EVNETWORK":"Tesla",
    "EV Connector Types":"TESLA"
    }
  },
  {
    "type": "Feature",
    "geometry": {
       "type": "Point",
       "coordinates":  [ -75.6863507,39.8609522 ]
    },
    "properties": {
    "Fuel Type Code":"ELEC",
    "NAME":"Hilton Garden Inn - Tesla",
    "ADDRESS":"815 E Baltimore Pike",
    "Intersection Directions":"",
    "City":"Kennett Square",
    "State":"PA",
    "ZIP":19348,
    "Plus4":"",
    "Groups With Access Code":"Public",
    "EV Level1 EVSE Num":null,
    "EV Level2 EVSE Num":1,
    "EV DC Fast Count":null,
    "EVNETWORK":"Tesla",
    "EV Connector Types":"TESLA"
    }
  },
  {
    "type": "Feature",
    "geometry": {
       "type": "Point",
       "coordinates":  [ -80.2228879,40.5136481 ]
    },
    "properties": {
    "Fuel Type Code":"ELEC",
    "NAME":"West Hills Nissan",
    "ADDRESS":"7900 University Blvd",
    "Intersection Directions":"",
    "City":"Coraopolis",
    "State":"PA",
    "ZIP":15108,
    "Plus4":"",
    "Groups With Access Code":"Public - Call ahead",
    "EV Level1 EVSE Num":null,
    "EV Level2 EVSE Num":1,
    "EV DC Fast Count":2,
    "EVNETWORK":"",
    "EV Connector Types":"J1772 CHADEMO"
    }
  },
  {
    "type": "Feature",
    "geometry": {
       "type": "Point",
       "coordinates":  [ -79.9580515,40.4405566 ]
    },
    "properties": {
    "Fuel Type Code":"ELEC",
    "NAME":"University of Pittsburgh Medical Center - Forbes Tower in Oakland",
    "ADDRESS":"3600 Forbes Ave",
    "Intersection Directions":"",
    "City":"Pittsburgh",
    "State":"PA",
    "ZIP":15213,
    "Plus4":"",
    "Groups With Access Code":"Public",
    "EV Level1 EVSE Num":null,
    "EV Level2 EVSE Num":1,
    "EV DC Fast Count":null,
    "EVNETWORK":"",
    "EV Connector Types":"J1772"
    }
  },
  {
    "type": "Feature",
    "geometry": {
       "type": "Point",
       "coordinates":  [ -79.9418146,40.3206503 ]
    },
    "properties": {
    "Fuel Type Code":"ELEC",
    "NAME":"Bowser Nissan",
    "ADDRESS":"1001 Clairton Blvd",
    "Intersection Directions":"At intersection of Route 51 and Lewis Run Road.",
    "City":"Pleasant Hills",
    "State":"PA",
    "ZIP":15236,
    "Plus4":"",
    "Groups With Access Code":"Public - Call ahead",
    "EV Level1 EVSE Num":null,
    "EV Level2 EVSE Num":1,
    "EV DC Fast Count":null,
    "EVNETWORK":"",
    "EV Connector Types":"J1772"
    }
  },
  {
    "type": "Feature",
    "geometry": {
       "type": "Point",
       "coordinates":  [ -80.2672077,40.4941769 ]
    },
    "properties": {
    "Fuel Type Code":"ELEC",
    "NAME":"Sunoco A-Plus Convenience Store",
    "ADDRESS":"1201 Airport Blvd",
    "Intersection Directions":"",
    "City":"Pittsburgh",
    "State":"PA",
    "ZIP":15231,
    "Plus4":"",
    "Groups With Access Code":"Public",
    "EV Level1 EVSE Num":null,
    "EV Level2 EVSE Num":2,
    "EV DC Fast Count":1,
    "EVNETWORK":"",
    "EV Connector Types":"J1772 CHADEMO"
    }
  },
  {
    "type": "Feature",
    "geometry": {
       "type": "Point",
       "coordinates":  [ -76.6038306,40.2948925 ]
    },
    "properties": {
    "Fuel Type Code":"ELEC",
    "NAME":"1825 Inn Bed and Breakfast - Tesla",
    "ADDRESS":"409 S Lingle Ave",
    "Intersection Directions":"",
    "City":"Palmyra",
    "State":"PA",
    "ZIP":17078,
    "Plus4":"",
    "Groups With Access Code":"Public - Call ahead",
    "EV Level1 EVSE Num":null,
    "EV Level2 EVSE Num":1,
    "EV DC Fast Count":null,
    "EVNETWORK":"Tesla",
    "EV Connector Types":"TESLA"
    }
  },
  {
    "type": "Feature",
    "geometry": {
       "type": "Point",
       "coordinates":  [ -75.160217,39.9531992 ]
    },
    "properties": {
    "Fuel Type Code":"ELEC",
    "NAME":"PARKWAY",
    "ADDRESS":"1201 Filbert St",
    "Intersection Directions":"12 & FILBERT 2; 3rd floor of parking garage\n12TH & FILBERT; 3rd level of parking garage",
    "City":"Philadelphia",
    "State":"PA",
    "ZIP":19107,
    "Plus4":"",
    "Groups With Access Code":"Public",
    "EV Level1 EVSE Num":null,
    "EV Level2 EVSE Num":2,
    "EV DC Fast Count":null,
    "EVNETWORK":"ChargePoint Network",
    "EV Connector Types":"J1772"
    }
  },
  {
    "type": "Feature",
    "geometry": {
       "type": "Point",
       "coordinates":  [ -75.7395049,40.8631425 ]
    },
    "properties": {
    "Fuel Type Code":"ELEC",
    "NAME":"Times House Bed and Breakfast - Tesla",
    "ADDRESS":"25 Race St",
    "Intersection Directions":"",
    "City":"Jim Thorpe",
    "State":"PA",
    "ZIP":18229,
    "Plus4":"",
    "Groups With Access Code":"Public",
    "EV Level1 EVSE Num":null,
    "EV Level2 EVSE Num":1,
    "EV DC Fast Count":null,
    "EVNETWORK":"Tesla",
    "EV Connector Types":"TESLA"
    }
  },
  {
    "type": "Feature",
    "geometry": {
       "type": "Point",
       "coordinates":  [ -75.1687937,39.9533718 ]
    },
    "properties": {
    "Fuel Type Code":"ELEC",
    "NAME":"1701 Market Street",
    "ADDRESS":"1701 Market Street",
    "Intersection Directions":"Primary entrance located on John F. Kennedy Blvd. Secondary entrance located on Market Street.",
    "City":"Philadelphia",
    "State":"PA",
    "ZIP":19103,
    "Plus4":"",
    "Groups With Access Code":"Public - Card key at all times",
    "EV Level1 EVSE Num":null,
    "EV Level2 EVSE Num":1,
    "EV DC Fast Count":null,
    "EVNETWORK":"SemaCharge Network",
    "EV Connector Types":"J1772"
    }
  },
  {
    "type": "Feature",
    "geometry": {
       "type": "Point",
       "coordinates":  [ -79.9532034,40.466533 ]
    },
    "properties": {
    "Fuel Type Code":"ELEC",
    "NAME":"University of Pittsburgh Medical Center - Children's Hospital",
    "ADDRESS":"4401 Penn Ave",
    "Intersection Directions":"",
    "City":"Pittsburgh",
    "State":"PA",
    "ZIP":15224,
    "Plus4":"",
    "Groups With Access Code":"Public",
    "EV Level1 EVSE Num":null,
    "EV Level2 EVSE Num":2,
    "EV DC Fast Count":null,
    "EVNETWORK":"",
    "EV Connector Types":"J1772"
    }
  },
  {
    "type": "Feature",
    "geometry": {
       "type": "Point",
       "coordinates":  [ -123.3684354,48.0939573 ]
    },
    "properties": {
    "Fuel Type Code":"ELEC",
    "NAME":"Best Western Plus Towanda Inn - Tesla",
    "ADDRESS":"44 Pearce Ln",
    "Intersection Directions":"",
    "City":"Towanda",
    "State":"PA",
    "ZIP":18848,
    "Plus4":"",
    "Groups With Access Code":"Public",
    "EV Level1 EVSE Num":null,
    "EV Level2 EVSE Num":1,
    "EV DC Fast Count":null,
    "EVNETWORK":"Tesla",
    "EV Connector Types":"TESLA"
    }
  },
  {
    "type": "Feature",
    "geometry": {
       "type": "Point",
       "coordinates":  [ -76.447995,40.339576 ]
    },
    "properties": {
    "Fuel Type Code":"ELEC",
    "NAME":"Maguire's Nissan - Lebanon",
    "ADDRESS":"2001 Cumberland St",
    "Intersection Directions":"",
    "City":"Lebanon",
    "State":"PA",
    "ZIP":17042,
    "Plus4":"",
    "Groups With Access Code":"Public - Call ahead",
    "EV Level1 EVSE Num":null,
    "EV Level2 EVSE Num":1,
    "EV DC Fast Count":null,
    "EVNETWORK":"",
    "EV Connector Types":"J1772"
    }
  },
  {
    "type": "Feature",
    "geometry": {
       "type": "Point",
       "coordinates":  [ -80.1220532,40.3166597 ]
    },
    "properties": {
    "Fuel Type Code":"ELEC",
    "NAME":"Adam Solar Rides",
    "ADDRESS":"1912 Mayview Rd",
    "Intersection Directions":"",
    "City":"Bridgeville",
    "State":"PA",
    "ZIP":15017,
    "Plus4":"",
    "Groups With Access Code":"Public",
    "EV Level1 EVSE Num":null,
    "EV Level2 EVSE Num":1,
    "EV DC Fast Count":null,
    "EVNETWORK":"",
    "EV Connector Types":"J1772"
    }
  },
  {
    "type": "Feature",
    "geometry": {
       "type": "Point",
       "coordinates":  [ -79.077388,40.017411 ]
    },
    "properties": {
    "Fuel Type Code":"ELEC",
    "NAME":"Wendy's - Tesla",
    "ADDRESS":"1030 N Center Ave",
    "Intersection Directions":"I-76 Exit 110",
    "City":"Somerset",
    "State":"PA",
    "ZIP":15501,
    "Plus4":"",
    "Groups With Access Code":"Public",
    "EV Level1 EVSE Num":null,
    "EV Level2 EVSE Num":null,
    "EV DC Fast Count":6,
    "EVNETWORK":"Tesla",
    "EV Connector Types":"TESLA"
    }
  },
  {
    "type": "Feature",
    "geometry": {
       "type": "Point",
       "coordinates":  [ -76.8139413,40.2515494 ]
    },
    "properties": {
    "Fuel Type Code":"ELEC",
    "NAME":"Faulkner Nissan",
    "ADDRESS":"3925 Paxton St",
    "Intersection Directions":"",
    "City":"Harrisburg",
    "State":"PA",
    "ZIP":17111,
    "Plus4":"",
    "Groups With Access Code":"Public - Call ahead",
    "EV Level1 EVSE Num":null,
    "EV Level2 EVSE Num":1,
    "EV DC Fast Count":null,
    "EVNETWORK":"",
    "EV Connector Types":"J1772"
    }
  },
  {
    "type": "Feature",
    "geometry": {
       "type": "Point",
       "coordinates":  [ -79.9474873,40.4390926 ]
    },
    "properties": {
    "Fuel Type Code":"ELEC",
    "NAME":"Phipps Conservatory and Botanical Gardens",
    "ADDRESS":"1 Schenely Dr",
    "Intersection Directions":"",
    "City":"Pittsburgh",
    "State":"PA",
    "ZIP":15213,
    "Plus4":"",
    "Groups With Access Code":"Public",
    "EV Level1 EVSE Num":null,
    "EV Level2 EVSE Num":2,
    "EV DC Fast Count":null,
    "EVNETWORK":"",
    "EV Connector Types":"J1772"
    }
  },
  {
    "type": "Feature",
    "geometry": {
       "type": "Point",
       "coordinates":  [ -78.3994104,40.4870346 ]
    },
    "properties": {
    "Fuel Type Code":"ELEC",
    "NAME":"Courtesy Motor Sales",
    "ADDRESS":"3100 Pleasant Valley Blvd",
    "Intersection Directions":"",
    "City":"Altoona",
    "State":"PA",
    "ZIP":16602,
    "Plus4":"",
    "Groups With Access Code":"Public - Call ahead",
    "EV Level1 EVSE Num":null,
    "EV Level2 EVSE Num":1,
    "EV DC Fast Count":null,
    "EVNETWORK":"",
    "EV Connector Types":"J1772"
    }
  },
  {
    "type": "Feature",
    "geometry": {
       "type": "Point",
       "coordinates":  [ -79.965695,40.426903 ]
    },
    "properties": {
    "Fuel Type Code":"ELEC",
    "NAME":"Furnace Garage",
    "ADDRESS":"536 S. 28th St.",
    "Intersection Directions":"When entering Furnace Garage, use the \nright lane and bear to the right (do \nnot drive up the ramp).  The charging \nstation will be to the right - next to \nthe generator room.\n",
    "City":"Pittsburgh",
    "State":"PA",
    "ZIP":15203,
    "Plus4":"",
    "Groups With Access Code":"Public",
    "EV Level1 EVSE Num":null,
    "EV Level2 EVSE Num":1,
    "EV DC Fast Count":null,
    "EVNETWORK":"Blink Network",
    "EV Connector Types":"J1772"
    }
  },
  {
    "type": "Feature",
    "geometry": {
       "type": "Point",
       "coordinates":  [ -75.6306827,40.0275681 ]
    },
    "properties": {
    "Fuel Type Code":"ELEC",
    "NAME":"Exton Nissan",
    "ADDRESS":"200 W Lincoln Hwy",
    "Intersection Directions":"",
    "City":"Exton",
    "State":"PA",
    "ZIP":19341,
    "Plus4":"",
    "Groups With Access Code":"Public - Call ahead",
    "EV Level1 EVSE Num":null,
    "EV Level2 EVSE Num":1,
    "EV DC Fast Count":null,
    "EVNETWORK":"",
    "EV Connector Types":"J1772"
    }
  },
  {
    "type": "Feature",
    "geometry": {
       "type": "Point",
       "coordinates":  [ -79.7551409,40.4371252 ]
    },
    "properties": {
    "Fuel Type Code":"ELEC",
    "NAME":"Holiday Inn - Monroeville",
    "ADDRESS":"2750 Mosside Blvd",
    "Intersection Directions":"",
    "City":"Monroeville",
    "State":"PA",
    "ZIP":15146,
    "Plus4":"",
    "Groups With Access Code":"Public",
    "EV Level1 EVSE Num":null,
    "EV Level2 EVSE Num":2,
    "EV DC Fast Count":null,
    "EVNETWORK":"",
    "EV Connector Types":"J1772"
    }
  },
  {
    "type": "Feature",
    "geometry": {
       "type": "Point",
       "coordinates":  [ -75.260853,39.989294 ]
    },
    "properties": {
    "Fuel Type Code":"ELEC",
    "NAME":"Lankenau Medical Center Parking Garage A",
    "ADDRESS":"100 East Lancaster Avenue",
    "Intersection Directions":"Lower Level\n",
    "City":"Wynnewood",
    "State":"PA",
    "ZIP":19096,
    "Plus4":"",
    "Groups With Access Code":"Public",
    "EV Level1 EVSE Num":null,
    "EV Level2 EVSE Num":1,
    "EV DC Fast Count":null,
    "EVNETWORK":"Blink Network",
    "EV Connector Types":"J1772"
    }
  },
  {
    "type": "Feature",
    "geometry": {
       "type": "Point",
       "coordinates":  [ -80.105368,42.054648 ]
    },
    "properties": {
    "Fuel Type Code":"ELEC",
    "NAME":"Interstate Mitsubishi",
    "ADDRESS":"6969 Edinboro Rd",
    "Intersection Directions":"Under canopy facing Route 99",
    "City":"Erie",
    "State":"PA",
    "ZIP":16509,
    "Plus4":"",
    "Groups With Access Code":"Public - Call ahead",
    "EV Level1 EVSE Num":null,
    "EV Level2 EVSE Num":2,
    "EV DC Fast Count":null,
    "EVNETWORK":"",
    "EV Connector Types":"J1772"
    }
  },
  {
    "type": "Feature",
    "geometry": {
       "type": "Point",
       "coordinates":  [ -79.503155,40.302298 ]
    },
    "properties": {
    "Fuel Type Code":"ELEC",
    "NAME":"Star Nissan",
    "ADDRESS":"5200 State Route 30",
    "Intersection Directions":"",
    "City":"Greensburg",
    "State":"PA",
    "ZIP":15601,
    "Plus4":"",
    "Groups With Access Code":"Public - Call ahead",
    "EV Level1 EVSE Num":null,
    "EV Level2 EVSE Num":1,
    "EV DC Fast Count":null,
    "EVNETWORK":"",
    "EV Connector Types":"J1772"
    }
  },
  {
    "type": "Feature",
    "geometry": {
       "type": "Point",
       "coordinates":  [ -76.0935219,40.333592 ]
    },
    "properties": {
    "Fuel Type Code":"ELEC",
    "NAME":"Eisenhauer Nissan",
    "ADDRESS":"6345 Penn Ave",
    "Intersection Directions":"",
    "City":"Wernersville",
    "State":"PA",
    "ZIP":19565,
    "Plus4":"",
    "Groups With Access Code":"Public - Call ahead",
    "EV Level1 EVSE Num":null,
    "EV Level2 EVSE Num":1,
    "EV DC Fast Count":null,
    "EVNETWORK":"",
    "EV Connector Types":"J1772"
    }
  },
  {
    "type": "Feature",
    "geometry": {
       "type": "Point",
       "coordinates":  [ -75.262674,39.989384 ]
    },
    "properties": {
    "Fuel Type Code":"ELEC",
    "NAME":"Lankenau Medical Center Parking Garage B",
    "ADDRESS":"100 East Lancaster Avenue",
    "Intersection Directions":"Ground Level\n",
    "City":"Wynnewood",
    "State":"PA",
    "ZIP":19096,
    "Plus4":"",
    "Groups With Access Code":"Public",
    "EV Level1 EVSE Num":null,
    "EV Level2 EVSE Num":1,
    "EV DC Fast Count":null,
    "EVNETWORK":"Blink Network",
    "EV Connector Types":"J1772"
    }
  },
  {
    "type": "Feature",
    "geometry": {
       "type": "Point",
       "coordinates":  [ -79.9553791,40.4440033 ]
    },
    "properties": {
    "Fuel Type Code":"ELEC",
    "NAME":"University of Pittsburgh - Soldiers and Sailors Garage",
    "ADDRESS":"4104 Fifth Ave",
    "Intersection Directions":"",
    "City":"Pittsburgh",
    "State":"PA",
    "ZIP":15213,
    "Plus4":"",
    "Groups With Access Code":"Public",
    "EV Level1 EVSE Num":null,
    "EV Level2 EVSE Num":6,
    "EV DC Fast Count":null,
    "EVNETWORK":"",
    "EV Connector Types":"J1772"
    }
  },
  {
    "type": "Feature",
    "geometry": {
       "type": "Point",
       "coordinates":  [ -77.1898689,40.1988136 ]
    },
    "properties": {
    "Fuel Type Code":"ELEC",
    "NAME":"Carlisle House Bed and Breakfast - Tesla",
    "ADDRESS":"148 S Hanover St",
    "Intersection Directions":"",
    "City":"Carlisle",
    "State":"PA",
    "ZIP":17013,
    "Plus4":"",
    "Groups With Access Code":"Public",
    "EV Level1 EVSE Num":null,
    "EV Level2 EVSE Num":1,
    "EV DC Fast Count":null,
    "EVNETWORK":"Tesla",
    "EV Connector Types":"TESLA"
    }
  },
  {
    "type": "Feature",
    "geometry": {
       "type": "Point",
       "coordinates":  [ -75.5024071,40.6212241 ]
    },
    "properties": {
    "Fuel Type Code":"ELEC",
    "NAME":"Rothrock Motor Sales",
    "ADDRESS":"1648 Plaza Ln",
    "Intersection Directions":"Intersection of Route 22 and 15th Street.",
    "City":"Allentown",
    "State":"PA",
    "ZIP":18104,
    "Plus4":"",
    "Groups With Access Code":"Public - Call ahead",
    "EV Level1 EVSE Num":null,
    "EV Level2 EVSE Num":1,
    "EV DC Fast Count":null,
    "EVNETWORK":"",
    "EV Connector Types":"J1772"
    }
  },
  {
    "type": "Feature",
    "geometry": {
       "type": "Point",
       "coordinates":  [ -79.947236,40.44477 ]
    },
    "properties": {
    "Fuel Type Code":"ELEC",
    "NAME":"Electric Garage - Carnegie Mellon University",
    "ADDRESS":"4621 Forbes Ave",
    "Intersection Directions":"East of Craig St on Forbes Ave",
    "City":"Pittsburgh",
    "State":"PA",
    "ZIP":15213,
    "Plus4":"",
    "Groups With Access Code":"Public",
    "EV Level1 EVSE Num":6,
    "EV Level2 EVSE Num":7,
    "EV DC Fast Count":null,
    "EVNETWORK":"Tesla",
    "EV Connector Types":"NEMA520 J1772 TESLA"
    }
  },
  {
    "type": "Feature",
    "geometry": {
       "type": "Point",
       "coordinates":  [ -79.83392334,40.53842163 ]
    },
    "properties": {
    "Fuel Type Code":"ELEC",
    "NAME":"Dunkin Donuts - Freeport Rd",
    "ADDRESS":"2725 Freeport Rd",
    "Intersection Directions":"",
    "City":"Pittsburgh",
    "State":"PA",
    "ZIP":15238,
    "Plus4":"",
    "Groups With Access Code":"Public - Card key at all times",
    "EV Level1 EVSE Num":null,
    "EV Level2 EVSE Num":null,
    "EV DC Fast Count":1,
    "EVNETWORK":"eVgo Network",
    "EV Connector Types":"J1772COMBO"
    }
  },
  {
    "type": "Feature",
    "geometry": {
       "type": "Point",
       "coordinates":  [ -76.347247,40.090978 ]
    },
    "properties": {
    "Fuel Type Code":"ELEC",
    "NAME":"Lancaster Nissan",
    "ADDRESS":"5340 Manheim Pike",
    "Intersection Directions":"",
    "City":"East Petersburg",
    "State":"PA",
    "ZIP":17520,
    "Plus4":"",
    "Groups With Access Code":"Public - Call ahead",
    "EV Level1 EVSE Num":null,
    "EV Level2 EVSE Num":1,
    "EV DC Fast Count":1,
    "EVNETWORK":"",
    "EV Connector Types":"J1772 CHADEMO"
    }
  },
  {
    "type": "Feature",
    "geometry": {
       "type": "Point",
       "coordinates":  [ -79.939928,40.454581 ]
    },
    "properties": {
    "Fuel Type Code":"ELEC",
    "NAME":"University of Pittsburgh Medical Center - Shadyside South Aiken Garage",
    "ADDRESS":"S Aiken Ave",
    "Intersection Directions":"",
    "City":"Pittsburgh",
    "State":"PA",
    "ZIP":15232,
    "Plus4":"",
    "Groups With Access Code":"Public",
    "EV Level1 EVSE Num":null,
    "EV Level2 EVSE Num":2,
    "EV DC Fast Count":null,
    "EVNETWORK":"",
    "EV Connector Types":"J1772"
    }
  },
  {
    "type": "Feature",
    "geometry": {
       "type": "Point",
       "coordinates":  [ -80.066293,42.0355609 ]
    },
    "properties": {
    "Fuel Type Code":"ELEC",
    "NAME":"NEW MOTORS BMW",
    "ADDRESS":"8636 US-19",
    "Intersection Directions":"STATION 01",
    "City":"Erie",
    "State":"PA",
    "ZIP":16509,
    "Plus4":"",
    "Groups With Access Code":"Public",
    "EV Level1 EVSE Num":null,
    "EV Level2 EVSE Num":2,
    "EV DC Fast Count":null,
    "EVNETWORK":"ChargePoint Network",
    "EV Connector Types":"J1772"
    }
  },
  {
    "type": "Feature",
    "geometry": {
       "type": "Point",
       "coordinates":  [ -80.1054078,42.0625286 ]
    },
    "properties": {
    "Fuel Type Code":"ELEC",
    "NAME":"SpringHill Suites - Tesla",
    "ADDRESS":"2087 Interchange Rd",
    "Intersection Directions":"",
    "City":"Erie",
    "State":"PA",
    "ZIP":16509,
    "Plus4":"",
    "Groups With Access Code":"Public",
    "EV Level1 EVSE Num":null,
    "EV Level2 EVSE Num":2,
    "EV DC Fast Count":null,
    "EVNETWORK":"Tesla",
    "EV Connector Types":"TESLA"
    }
  },
  {
    "type": "Feature",
    "geometry": {
       "type": "Point",
       "coordinates":  [ -75.1331318,40.3396517 ]
    },
    "properties": {
    "Fuel Type Code":"ELEC",
    "NAME":"Fred Beans Ford",
    "ADDRESS":"876 N Easton Rd",
    "Intersection Directions":"",
    "City":"Doylestown",
    "State":"PA",
    "ZIP":18902,
    "Plus4":"",
    "Groups With Access Code":"Public",
    "EV Level1 EVSE Num":null,
    "EV Level2 EVSE Num":2,
    "EV DC Fast Count":null,
    "EVNETWORK":"",
    "EV Connector Types":"J1772"
    }
  },
  {
    "type": "Feature",
    "geometry": {
       "type": "Point",
       "coordinates":  [ -80.166771,40.278861 ]
    },
    "properties": {
    "Fuel Type Code":"ELEC",
    "NAME":"Consol  Energy ",
    "ADDRESS":"1000 Consol Energy Dr ",
    "Intersection Directions":"",
    "City":"Canonsburg",
    "State":"PA",
    "ZIP":15317,
    "Plus4":"",
    "Groups With Access Code":"Public",
    "EV Level1 EVSE Num":null,
    "EV Level2 EVSE Num":1,
    "EV DC Fast Count":null,
    "EVNETWORK":"",
    "EV Connector Types":"J1772"
    }
  },
  {
    "type": "Feature",
    "geometry": {
       "type": "Point",
       "coordinates":  [ -79.948845,40.44341 ]
    },
    "properties": {
    "Fuel Type Code":"ELEC",
    "NAME":"Carnegie Museums of Pittsburgh",
    "ADDRESS":"4400 Forbes Ave",
    "Intersection Directions":"Forbes Ave and Craig St",
    "City":"Pittsburgh",
    "State":"PA",
    "ZIP":15213,
    "Plus4":"",
    "Groups With Access Code":"Public",
    "EV Level1 EVSE Num":null,
    "EV Level2 EVSE Num":1,
    "EV DC Fast Count":null,
    "EVNETWORK":"",
    "EV Connector Types":"J1772"
    }
  },
  {
    "type": "Feature",
    "geometry": {
       "type": "Point",
       "coordinates":  [ -75.6084466,40.6657958 ]
    },
    "properties": {
    "Fuel Type Code":"ELEC",
    "NAME":"Lehigh Carbon Community College",
    "ADDRESS":"4525 Education Park Dr",
    "Intersection Directions":"",
    "City":"Schnecksville",
    "State":"PA",
    "ZIP":18078,
    "Plus4":"",
    "Groups With Access Code":"Public",
    "EV Level1 EVSE Num":null,
    "EV Level2 EVSE Num":10,
    "EV DC Fast Count":null,
    "EVNETWORK":"",
    "EV Connector Types":"J1772"
    }
  },
  {
    "type": "Feature",
    "geometry": {
       "type": "Point",
       "coordinates":  [ -75.393246,40.085446 ]
    },
    "properties": {
    "Fuel Type Code":"ELEC",
    "NAME":"King of Prussia Mall",
    "ADDRESS":"160 N. Gulph Road",
    "Intersection Directions":"",
    "City":"King of Prussia",
    "State":"PA",
    "ZIP":19406,
    "Plus4":"",
    "Groups With Access Code":"Public",
    "EV Level1 EVSE Num":null,
    "EV Level2 EVSE Num":2,
    "EV DC Fast Count":null,
    "EVNETWORK":"Blink Network",
    "EV Connector Types":"J1772"
    }
  },
  {
    "type": "Feature",
    "geometry": {
       "type": "Point",
       "coordinates":  [ -77.100574,40.693435 ]
    },
    "properties": {
    "Fuel Type Code":"ELEC",
    "NAME":"County Line Restaurant - Tesla",
    "ADDRESS":"14206 Route 35",
    "Intersection Directions":"",
    "City":"Richfield",
    "State":"PA",
    "ZIP":17086,
    "Plus4":"",
    "Groups With Access Code":"Public",
    "EV Level1 EVSE Num":null,
    "EV Level2 EVSE Num":1,
    "EV DC Fast Count":null,
    "EVNETWORK":"Tesla",
    "EV Connector Types":"TESLA"
    }
  },
  {
    "type": "Feature",
    "geometry": {
       "type": "Point",
       "coordinates":  [ -77.6496385,39.9501161 ]
    },
    "properties": {
    "Fuel Type Code":"ELEC",
    "NAME":"Wilson College Science Center",
    "ADDRESS":"  1015 Philadelphia Ave",
    "Intersection Directions":"Located in Lot I",
    "City":"Chambersburg",
    "State":"PA",
    "ZIP":17201,
    "Plus4":"",
    "Groups With Access Code":"Public",
    "EV Level1 EVSE Num":null,
    "EV Level2 EVSE Num":2,
    "EV DC Fast Count":null,
    "EVNETWORK":"",
    "EV Connector Types":"J1772"
    }
  },
  {
    "type": "Feature",
    "geometry": {
       "type": "Point",
       "coordinates":  [ -75.1664,39.96356583 ]
    },
    "properties": {
    "Fuel Type Code":"ELEC",
    "NAME":"IBEW Local Union 98",
    "ADDRESS":"1719 Spring Garden St",
    "Intersection Directions":"Rear parking lot of training building",
    "City":"Philadelphia",
    "State":"PA",
    "ZIP":19130,
    "Plus4":"",
    "Groups With Access Code":"Public",
    "EV Level1 EVSE Num":1,
    "EV Level2 EVSE Num":1,
    "EV DC Fast Count":null,
    "EVNETWORK":"",
    "EV Connector Types":"NEMA520 J1772"
    }
  },
  {
    "type": "Feature",
    "geometry": {
       "type": "Point",
       "coordinates":  [ -79.9616773,40.4422726 ]
    },
    "properties": {
    "Fuel Type Code":"ELEC",
    "NAME":"University of Pittsburgh Medical Center - Presbyterian Hospital Parking Garage",
    "ADDRESS":"255 Lothrop St",
    "Intersection Directions":"Lothrop and Terrace Street, enter garage off of Lothrop St",
    "City":"Pittsburgh",
    "State":"PA",
    "ZIP":15213,
    "Plus4":"",
    "Groups With Access Code":"Public",
    "EV Level1 EVSE Num":null,
    "EV Level2 EVSE Num":2,
    "EV DC Fast Count":null,
    "EVNETWORK":"",
    "EV Connector Types":"J1772"
    }
  },
  {
    "type": "Feature",
    "geometry": {
       "type": "Point",
       "coordinates":  [ -79.948824,40.454497 ]
    },
    "properties": {
    "Fuel Type Code":"ELEC",
    "NAME":"Baum Blvd Automotive",
    "ADDRESS":"4741 Baum Blvd",
    "Intersection Directions":"Baum Blvd & Bigelow Blvd",
    "City":"Pittsburgh",
    "State":"PA",
    "ZIP":15213,
    "Plus4":"",
    "Groups With Access Code":"Public",
    "EV Level1 EVSE Num":null,
    "EV Level2 EVSE Num":1,
    "EV DC Fast Count":null,
    "EVNETWORK":"",
    "EV Connector Types":"J1772"
    }
  },
  {
    "type": "Feature",
    "geometry": {
       "type": "Point",
       "coordinates":  [ -75.224068,40.268837 ]
    },
    "properties": {
    "Fuel Type Code":"ELEC",
    "NAME":"Bucks County Specialty Care Center",
    "ADDRESS":"500 West Butler Avenue",
    "Intersection Directions":"",
    "City":"Chalfont",
    "State":"PA",
    "ZIP":18914,
    "Plus4":"",
    "Groups With Access Code":"Public",
    "EV Level1 EVSE Num":null,
    "EV Level2 EVSE Num":2,
    "EV DC Fast Count":null,
    "EVNETWORK":"Blink Network",
    "EV Connector Types":"J1772"
    }
  },
  {
    "type": "Feature",
    "geometry": {
       "type": "Point",
       "coordinates":  [ -80.4283829,41.2840902 ]
    },
    "properties": {
    "Fuel Type Code":"ELEC",
    "NAME":"Tara A Country Inn - Tesla",
    "ADDRESS":"2844 Lake Rd",
    "Intersection Directions":"",
    "City":"Sharpsville",
    "State":"PA",
    "ZIP":16150,
    "Plus4":"",
    "Groups With Access Code":"Public",
    "EV Level1 EVSE Num":null,
    "EV Level2 EVSE Num":1,
    "EV DC Fast Count":null,
    "EVNETWORK":"Tesla",
    "EV Connector Types":"TESLA"
    }
  },
  {
    "type": "Feature",
    "geometry": {
       "type": "Point",
       "coordinates":  [ -80.3815311,40.7765415 ]
    },
    "properties": {
    "Fuel Type Code":"ELEC",
    "NAME":"Beaver County Nissan",
    "ADDRESS":"2777 Constitution Blvd",
    "Intersection Directions":"",
    "City":"Beaver Falls",
    "State":"PA",
    "ZIP":15010,
    "Plus4":"",
    "Groups With Access Code":"Public - Call ahead",
    "EV Level1 EVSE Num":null,
    "EV Level2 EVSE Num":1,
    "EV DC Fast Count":null,
    "EVNETWORK":"",
    "EV Connector Types":"J1772"
    }
  },
  {
    "type": "Feature",
    "geometry": {
       "type": "Point",
       "coordinates":  [ -75.172626,39.958139 ]
    },
    "properties": {
    "Fuel Type Code":"ELEC",
    "NAME":"The Franklin Institute",
    "ADDRESS":"222 North 20th  Street",
    "Intersection Directions":"",
    "City":"Philadelphia",
    "State":"PA",
    "ZIP":19103,
    "Plus4":"",
    "Groups With Access Code":"Public",
    "EV Level1 EVSE Num":null,
    "EV Level2 EVSE Num":2,
    "EV DC Fast Count":null,
    "EVNETWORK":"Blink Network",
    "EV Connector Types":"J1772"
    }
  },
  {
    "type": "Feature",
    "geometry": {
       "type": "Point",
       "coordinates":  [ -76.2527116,40.0528454 ]
    },
    "properties": {
    "Fuel Type Code":"ELEC",
    "NAME":"HIGH HOTELS",
    "ADDRESS":"545 Greenfield Rd",
    "Intersection Directions":"LH EV CHARGER; Please see Front Desk Staff for access card,",
    "City":"Lancaster",
    "State":"PA",
    "ZIP":17601,
    "Plus4":"",
    "Groups With Access Code":"Public",
    "EV Level1 EVSE Num":null,
    "EV Level2 EVSE Num":1,
    "EV DC Fast Count":null,
    "EVNETWORK":"ChargePoint Network",
    "EV Connector Types":"J1772"
    }
  },
  {
    "type": "Feature",
    "geometry": {
       "type": "Point",
       "coordinates":  [ -75.165062,39.9467392 ]
    },
    "properties": {
    "Fuel Type Code":"ELEC",
    "NAME":"PARKWAY",
    "ADDRESS":"300 S Broad St",
    "Intersection Directions":"RPAC; Lower level parking- RPAC",
    "City":"Philadelphia",
    "State":"PA",
    "ZIP":19102,
    "Plus4":"",
    "Groups With Access Code":"Public",
    "EV Level1 EVSE Num":null,
    "EV Level2 EVSE Num":1,
    "EV DC Fast Count":null,
    "EVNETWORK":"ChargePoint Network",
    "EV Connector Types":"J1772"
    }
  },
  {
    "type": "Feature",
    "geometry": {
       "type": "Point",
       "coordinates":  [ -75.4223313,39.9599123 ]
    },
    "properties": {
    "Fuel Type Code":"ELEC",
    "NAME":"Hamanassett Bed and Breakfast - Tesla",
    "ADDRESS":"115 Indian Spring Rd",
    "Intersection Directions":"",
    "City":"Media",
    "State":"PA",
    "ZIP":19063,
    "Plus4":"",
    "Groups With Access Code":"Public - Call ahead",
    "EV Level1 EVSE Num":null,
    "EV Level2 EVSE Num":1,
    "EV DC Fast Count":null,
    "EVNETWORK":"Tesla",
    "EV Connector Types":"TESLA"
    }
  },
  {
    "type": "Feature",
    "geometry": {
       "type": "Point",
       "coordinates":  [ -75.138597,39.955951 ]
    },
    "properties": {
    "Fuel Type Code":"ELEC",
    "NAME":"Marine Center - Pier 19 Dave & Busters Location",
    "ADDRESS":"325 N Columbus Blvd",
    "Intersection Directions":"",
    "City":"Philadelphia",
    "State":"PA",
    "ZIP":19106,
    "Plus4":"",
    "Groups With Access Code":"Public",
    "EV Level1 EVSE Num":null,
    "EV Level2 EVSE Num":1,
    "EV DC Fast Count":null,
    "EVNETWORK":"Blink Network",
    "EV Connector Types":"J1772"
    }
  },
  {
    "type": "Feature",
    "geometry": {
       "type": "Point",
       "coordinates":  [ -75.7735214,39.9919529 ]
    },
    "properties": {
    "Fuel Type Code":"ELEC",
    "NAME":"Brian Hoskins Ford",
    "ADDRESS":"2601 E Lincoln Hwy",
    "Intersection Directions":"",
    "City":"Coatesville",
    "State":"PA",
    "ZIP":19320,
    "Plus4":"",
    "Groups With Access Code":"Public",
    "EV Level1 EVSE Num":null,
    "EV Level2 EVSE Num":1,
    "EV DC Fast Count":null,
    "EVNETWORK":"",
    "EV Connector Types":"J1772"
    }
  },
  {
    "type": "Feature",
    "geometry": {
       "type": "Point",
       "coordinates":  [ -74.96128845,40.08560562 ]
    },
    "properties": {
    "Fuel Type Code":"ELEC",
    "NAME":"Philadelphia Mills",
    "ADDRESS":"1455 Franklin Mills Cir",
    "Intersection Directions":"",
    "City":"Philadelphia",
    "State":"PA",
    "ZIP":19154,
    "Plus4":"",
    "Groups With Access Code":"Public - Card key at all times",
    "EV Level1 EVSE Num":null,
    "EV Level2 EVSE Num":1,
    "EV DC Fast Count":1,
    "EVNETWORK":"eVgo Network",
    "EV Connector Types":"J1772 J1772COMBO"
    }
  },
  {
    "type": "Feature",
    "geometry": {
       "type": "Point",
       "coordinates":  [ -75.0295974,40.077774 ]
    },
    "properties": {
    "Fuel Type Code":"ELEC",
    "NAME":"Chapman Northeast Ford",
    "ADDRESS":"9371 Roosevelt Blvd",
    "Intersection Directions":"",
    "City":"Philadelphia",
    "State":"PA",
    "ZIP":19114,
    "Plus4":"",
    "Groups With Access Code":"Public",
    "EV Level1 EVSE Num":null,
    "EV Level2 EVSE Num":2,
    "EV DC Fast Count":null,
    "EVNETWORK":"",
    "EV Connector Types":"J1772"
    }
  },
  {
    "type": "Feature",
    "geometry": {
       "type": "Point",
       "coordinates":  [ -75.4159819,40.0481007 ]
    },
    "properties": {
    "Fuel Type Code":"ELEC",
    "NAME":"BMW OF DEVON",
    "ADDRESS":"2-58 E Lancaster Ave",
    "Intersection Directions":"STATION 01",
    "City":"Devon",
    "State":"PA",
    "ZIP":19333,
    "Plus4":"",
    "Groups With Access Code":"Public",
    "EV Level1 EVSE Num":null,
    "EV Level2 EVSE Num":2,
    "EV DC Fast Count":null,
    "EVNETWORK":"ChargePoint Network",
    "EV Connector Types":"J1772"
    }
  },
  {
    "type": "Feature",
    "geometry": {
       "type": "Point",
       "coordinates":  [ -76.2814028,40.0395786 ]
    },
    "properties": {
    "Fuel Type Code":"ELEC",
    "NAME":"King's Cottage Bed and Breakfast",
    "ADDRESS":"1049 E King St",
    "Intersection Directions":"",
    "City":"Lancaster",
    "State":"PA",
    "ZIP":17602,
    "Plus4":"",
    "Groups With Access Code":"Public",
    "EV Level1 EVSE Num":null,
    "EV Level2 EVSE Num":2,
    "EV DC Fast Count":null,
    "EVNETWORK":"Tesla",
    "EV Connector Types":"TESLA J1772"
    }
  },
  {
    "type": "Feature",
    "geometry": {
       "type": "Point",
       "coordinates":  [ -76.881343,40.9530397 ]
    },
    "properties": {
    "Fuel Type Code":"ELEC",
    "NAME":"STATION 1",
    "ADDRESS":"805 Fraternity Road",
    "Intersection Directions":"BUCKNELL",
    "City":"Lewisburg",
    "State":"PA",
    "ZIP":17837,
    "Plus4":"",
    "Groups With Access Code":"Public",
    "EV Level1 EVSE Num":null,
    "EV Level2 EVSE Num":2,
    "EV DC Fast Count":null,
    "EVNETWORK":"ChargePoint Network",
    "EV Connector Types":"J1772"
    }
  },
  {
    "type": "Feature",
    "geometry": {
       "type": "Point",
       "coordinates":  [ -75.9892741,40.3473443 ]
    },
    "properties": {
    "Fuel Type Code":"ELEC",
    "NAME":"American Power Net Office",
    "ADDRESS":"45 Commerce Dr",
    "Intersection Directions":"",
    "City":"Wyomissing",
    "State":"PA",
    "ZIP":19610,
    "Plus4":"",
    "Groups With Access Code":"Public",
    "EV Level1 EVSE Num":null,
    "EV Level2 EVSE Num":2,
    "EV DC Fast Count":null,
    "EVNETWORK":"",
    "EV Connector Types":"J1772"
    }
  },
  {
    "type": "Feature",
    "geometry": {
       "type": "Point",
       "coordinates":  [ -75.589872,40.110611 ]
    },
    "properties": {
    "Fuel Type Code":"ELEC",
    "NAME":"Main Line Animal Rescue",
    "ADDRESS":"1149 Pike Springs Road",
    "Intersection Directions":"",
    "City":"Phoenixville",
    "State":"PA",
    "ZIP":19460,
    "Plus4":"",
    "Groups With Access Code":"Public",
    "EV Level1 EVSE Num":null,
    "EV Level2 EVSE Num":2,
    "EV DC Fast Count":null,
    "EVNETWORK":"Blink Network",
    "EV Connector Types":"J1772"
    }
  },
  {
    "type": "Feature",
    "geometry": {
       "type": "Point",
       "coordinates":  [ -75.169886,39.9561242 ]
    },
    "properties": {
    "Fuel Type Code":"ELEC",
    "NAME":"LOGAN SQUARE",
    "ADDRESS":"1815 Cherry St",
    "Intersection Directions":"CHERRYST GARAGE; Floor 1, Next to Cherry St. Entrance",
    "City":"Philadelphia",
    "State":"PA",
    "ZIP":19103,
    "Plus4":"",
    "Groups With Access Code":"Public",
    "EV Level1 EVSE Num":null,
    "EV Level2 EVSE Num":2,
    "EV DC Fast Count":null,
    "EVNETWORK":"ChargePoint Network",
    "EV Connector Types":"J1772"
    }
  },
  {
    "type": "Feature",
    "geometry": {
       "type": "Point",
       "coordinates":  [ -77.8341572,40.809077 ]
    },
    "properties": {
    "Fuel Type Code":"ELEC",
    "NAME":"Country Inn and Suites - Tesla",
    "ADDRESS":"1257 E College Ave",
    "Intersection Directions":"",
    "City":"State College",
    "State":"PA",
    "ZIP":16801,
    "Plus4":"",
    "Groups With Access Code":"Public",
    "EV Level1 EVSE Num":null,
    "EV Level2 EVSE Num":2,
    "EV DC Fast Count":null,
    "EVNETWORK":"Tesla",
    "EV Connector Types":"TESLA"
    }
  },
  {
    "type": "Feature",
    "geometry": {
       "type": "Point",
       "coordinates":  [ -79.9168342,40.4571652 ]
    },
    "properties": {
    "Fuel Type Code":"ELEC",
    "NAME":"GOOGLE",
    "ADDRESS":"6425 Penn Ave",
    "Intersection Directions":"PIT-BAK-02; Charging restricted to Bakery Square tenants (bus. hours)\nPIT-BAK-01; Charging restricted to Bakery Square tenants (bus. hours)\nPIT-BAK-04; Charging restricted to Bakery Square tenants (bus. hours)\nPIT-BAK-03; Charging restricted to Bakery Square tenants (bus. hours)",
    "City":"Pittsburgh",
    "State":"PA",
    "ZIP":15206,
    "Plus4":"",
    "Groups With Access Code":"Public",
    "EV Level1 EVSE Num":null,
    "EV Level2 EVSE Num":8,
    "EV DC Fast Count":null,
    "EVNETWORK":"ChargePoint Network",
    "EV Connector Types":"J1772"
    }
  },
  {
    "type": "Feature",
    "geometry": {
       "type": "Point",
       "coordinates":  [ -76.250756,40.052814 ]
    },
    "properties": {
    "Fuel Type Code":"ELEC",
    "NAME":"Greenfield Corporate Center",
    "ADDRESS":"1862 Charter Ln",
    "Intersection Directions":"Charger located on the bottom floor of the building's lot. ",
    "City":"Lancaster",
    "State":"PA",
    "ZIP":17601,
    "Plus4":"",
    "Groups With Access Code":"Public",
    "EV Level1 EVSE Num":null,
    "EV Level2 EVSE Num":1,
    "EV DC Fast Count":null,
    "EVNETWORK":"",
    "EV Connector Types":"J1772"
    }
  },
  {
    "type": "Feature",
    "geometry": {
       "type": "Point",
       "coordinates":  [ -80.28044128,40.60458755 ]
    },
    "properties": {
    "Fuel Type Code":"ELEC",
    "NAME":"DD - Aliquippa",
    "ADDRESS":"2658 Broadhead Road",
    "Intersection Directions":"",
    "City":"Aliquippa",
    "State":"PA",
    "ZIP":15001,
    "Plus4":"",
    "Groups With Access Code":"Public - Card key at all times",
    "EV Level1 EVSE Num":null,
    "EV Level2 EVSE Num":null,
    "EV DC Fast Count":1,
    "EVNETWORK":"eVgo Network",
    "EV Connector Types":"J1772COMBO"
    }
  },
  {
    "type": "Feature",
    "geometry": {
       "type": "Point",
       "coordinates":  [ -76.8866196,40.2629509 ]
    },
    "properties": {
    "Fuel Type Code":"ELEC",
    "NAME":"SECOND & STATE",
    "ADDRESS":"409-477 N 2nd St",
    "Intersection Directions":"2ND & STATE; Located in Front of 409 North Second Street, near corner of Second & State",
    "City":"Harrisburg",
    "State":"PA",
    "ZIP":17101,
    "Plus4":"",
    "Groups With Access Code":"Public",
    "EV Level1 EVSE Num":null,
    "EV Level2 EVSE Num":1,
    "EV DC Fast Count":null,
    "EVNETWORK":"ChargePoint Network",
    "EV Connector Types":"J1772"
    }
  },
  {
    "type": "Feature",
    "geometry": {
       "type": "Point",
       "coordinates":  [ -75.4160471,39.9897261 ]
    },
    "properties": {
    "Fuel Type Code":"ELEC",
    "NAME":"CHARGE POINT",
    "ADDRESS":"3999 West Chester Pike",
    "Intersection Directions":"SAP AMERICA; EV Parking Only available for use by the employees, registered guests and providers of SAP America",
    "City":"Newtown Square",
    "State":"PA",
    "ZIP":19073,
    "Plus4":"",
    "Groups With Access Code":"Public",
    "EV Level1 EVSE Num":null,
    "EV Level2 EVSE Num":2,
    "EV DC Fast Count":null,
    "EVNETWORK":"ChargePoint Network",
    "EV Connector Types":"J1772"
    }
  },
  {
    "type": "Feature",
    "geometry": {
       "type": "Point",
       "coordinates":  [ -75.138597,39.956733 ]
    },
    "properties": {
    "Fuel Type Code":"ELEC",
    "NAME":"Marine Center - Pier #24",
    "ADDRESS":"401 N Columbus Blvd",
    "Intersection Directions":"Marine Center - Pier #24 North Parking \nLot\n",
    "City":"Philadelphia",
    "State":"PA",
    "ZIP":19123,
    "Plus4":"",
    "Groups With Access Code":"Public",
    "EV Level1 EVSE Num":null,
    "EV Level2 EVSE Num":1,
    "EV DC Fast Count":null,
    "EVNETWORK":"Blink Network",
    "EV Connector Types":"J1772"
    }
  },
  {
    "type": "Feature",
    "geometry": {
       "type": "Point",
       "coordinates":  [ -80.113714,40.747133 ]
    },
    "properties": {
    "Fuel Type Code":"ELEC",
    "NAME":"Kenny Ross Nissan",
    "ADDRESS":"22030 Route 19",
    "Intersection Directions":"Perry Highway",
    "City":"Zelienople",
    "State":"PA",
    "ZIP":16063,
    "Plus4":"",
    "Groups With Access Code":"Public - Call ahead",
    "EV Level1 EVSE Num":null,
    "EV Level2 EVSE Num":1,
    "EV DC Fast Count":1,
    "EVNETWORK":"",
    "EV Connector Types":"J1772 CHADEMO"
    }
  },
  {
    "type": "Feature",
    "geometry": {
       "type": "Point",
       "coordinates":  [ -75.1300339,40.328096 ]
    },
    "properties": {
    "Fuel Type Code":"ELEC",
    "NAME":"THOMPSON BMW",
    "ADDRESS":"700 N Easton Rd",
    "Intersection Directions":"STATION 01",
    "City":"Doylestown",
    "State":"PA",
    "ZIP":18902,
    "Plus4":"",
    "Groups With Access Code":"Public",
    "EV Level1 EVSE Num":null,
    "EV Level2 EVSE Num":2,
    "EV DC Fast Count":null,
    "EVNETWORK":"ChargePoint Network",
    "EV Connector Types":"J1772"
    }
  },
  {
    "type": "Feature",
    "geometry": {
       "type": "Point",
       "coordinates":  [ -75.246311,39.967681 ]
    },
    "properties": {
    "Fuel Type Code":"ELEC",
    "NAME":"Walgreens - Philadelphia, PA #6895",
    "ADDRESS":"300 N 63rd St",
    "Intersection Directions":"",
    "City":"Philadelphia",
    "State":"PA",
    "ZIP":19139,
    "Plus4":"",
    "Groups With Access Code":"Public - Card key at all times",
    "EV Level1 EVSE Num":null,
    "EV Level2 EVSE Num":1,
    "EV DC Fast Count":null,
    "EVNETWORK":"SemaCharge Network",
    "EV Connector Types":"J1772"
    }
  },
  {
    "type": "Feature",
    "geometry": {
       "type": "Point",
       "coordinates":  [ -76.2043516,40.0852755 ]
    },
    "properties": {
    "Fuel Type Code":"ELEC",
    "NAME":"The Inn at Leola Village - Tesla",
    "ADDRESS":"38 Deborah Dr",
    "Intersection Directions":"",
    "City":"Leola",
    "State":"PA",
    "ZIP":17540,
    "Plus4":"",
    "Groups With Access Code":"Public",
    "EV Level1 EVSE Num":null,
    "EV Level2 EVSE Num":2,
    "EV DC Fast Count":null,
    "EVNETWORK":"Tesla",
    "EV Connector Types":"TESLA"
    }
  },
  {
    "type": "Feature",
    "geometry": {
       "type": "Point",
       "coordinates":  [ -79.9979533,40.1307665 ]
    },
    "properties": {
    "Fuel Type Code":"ELEC",
    "NAME":"Holiday Inn - Bentleyville",
    "ADDRESS":"25 Smita Ln",
    "Intersection Directions":"",
    "City":"Bentleyville",
    "State":"PA",
    "ZIP":15314,
    "Plus4":"",
    "Groups With Access Code":"Public",
    "EV Level1 EVSE Num":null,
    "EV Level2 EVSE Num":1,
    "EV DC Fast Count":null,
    "EVNETWORK":"",
    "EV Connector Types":"J1772"
    }
  },
  {
    "type": "Feature",
    "geometry": {
       "type": "Point",
       "coordinates":  [ -79.9609635,40.4370751 ]
    },
    "properties": {
    "Fuel Type Code":"ELEC",
    "NAME":"University of Pittsburgh Medical Center - Magee",
    "ADDRESS":"300 Halket St",
    "Intersection Directions":"",
    "City":"Pittsburgh",
    "State":"PA",
    "ZIP":15213,
    "Plus4":"",
    "Groups With Access Code":"Public",
    "EV Level1 EVSE Num":null,
    "EV Level2 EVSE Num":1,
    "EV DC Fast Count":null,
    "EVNETWORK":"",
    "EV Connector Types":"J1772"
    }
  },
  {
    "type": "Feature",
    "geometry": {
       "type": "Point",
       "coordinates":  [ -75.5442656,39.8658371 ]
    },
    "properties": {
    "Fuel Type Code":"ELEC",
    "NAME":"Concordville Nissan",
    "ADDRESS":"452 Wilmington W Chester Pike",
    "Intersection Directions":"",
    "City":"Glen Mills",
    "State":"PA",
    "ZIP":19342,
    "Plus4":"",
    "Groups With Access Code":"Public - Call ahead",
    "EV Level1 EVSE Num":null,
    "EV Level2 EVSE Num":1,
    "EV DC Fast Count":null,
    "EVNETWORK":"",
    "EV Connector Types":"J1772"
    }
  },
  {
    "type": "Feature",
    "geometry": {
       "type": "Point",
       "coordinates":  [ -75.1725901,39.9605194 ]
    },
    "properties": {
    "Fuel Type Code":"ELEC",
    "NAME":"BARNES",
    "ADDRESS":"2025 Benjamin Franklin Pkwy",
    "Intersection Directions":"FOUNDATION #1; Located in parking lot NE corner\nFOUNDATION #3; Located in parking lot NE corner access through gates\nFOUNDATION #2; Located in parking lot NE corner access through gates",
    "City":"Philadelphia",
    "State":"PA",
    "ZIP":19130,
    "Plus4":"",
    "Groups With Access Code":"Public",
    "EV Level1 EVSE Num":null,
    "EV Level2 EVSE Num":3,
    "EV DC Fast Count":null,
    "EVNETWORK":"ChargePoint Network",
    "EV Connector Types":"J1772"
    }
  },
  {
    "type": "Feature",
    "geometry": {
       "type": "Point",
       "coordinates":  [ -80.05582,40.631511 ]
    },
    "properties": {
    "Fuel Type Code":"ELEC",
    "NAME":"Giant Eagle - Pine Township",
    "ADDRESS":"155 Towne Center Dr",
    "Intersection Directions":"",
    "City":"Wexford",
    "State":"PA",
    "ZIP":15090,
    "Plus4":"",
    "Groups With Access Code":"Public",
    "EV Level1 EVSE Num":null,
    "EV Level2 EVSE Num":2,
    "EV DC Fast Count":null,
    "EVNETWORK":"",
    "EV Connector Types":"J1772"
    }
  },
  {
    "type": "Feature",
    "geometry": {
       "type": "Point",
       "coordinates":  [ -80.065189,42.0291349 ]
    },
    "properties": {
    "Fuel Type Code":"ELEC",
    "NAME":"Porreco Nissan",
    "ADDRESS":"8890 Peach St",
    "Intersection Directions":"",
    "City":"Erie",
    "State":"PA",
    "ZIP":16509,
    "Plus4":"",
    "Groups With Access Code":"Public - Call ahead",
    "EV Level1 EVSE Num":null,
    "EV Level2 EVSE Num":1,
    "EV DC Fast Count":null,
    "EVNETWORK":"",
    "EV Connector Types":"J1772"
    }
  },
  {
    "type": "Feature",
    "geometry": {
       "type": "Point",
       "coordinates":  [ -80.2672077,40.4941769 ]
    },
    "properties": {
    "Fuel Type Code":"ELEC",
    "NAME":"Sunoco APlus - Pittsburgh Airport",
    "ADDRESS":"1201 Airport Blvd",
    "Intersection Directions":"",
    "City":"Pittsburgh",
    "State":"PA",
    "ZIP":15126,
    "Plus4":"",
    "Groups With Access Code":"Public",
    "EV Level1 EVSE Num":null,
    "EV Level2 EVSE Num":2,
    "EV DC Fast Count":1,
    "EVNETWORK":"Greenlots",
    "EV Connector Types":"J1772 CHADEMO"
    }
  },
  {
    "type": "Feature",
    "geometry": {
       "type": "Point",
       "coordinates":  [ -75.3414059,41.2831762 ]
    },
    "properties": {
    "Fuel Type Code":"ELEC",
    "NAME":"The French Manor Inn and Spa - Tesla",
    "ADDRESS":"50 Huntingdon Dr",
    "Intersection Directions":"",
    "City":"Newfoundland",
    "State":"PA",
    "ZIP":18445,
    "Plus4":"",
    "Groups With Access Code":"Public",
    "EV Level1 EVSE Num":null,
    "EV Level2 EVSE Num":1,
    "EV DC Fast Count":null,
    "EVNETWORK":"Tesla",
    "EV Connector Types":"TESLA"
    }
  },
  {
    "type": "Feature",
    "geometry": {
       "type": "Point",
       "coordinates":  [ -75.2342434,39.8908221 ]
    },
    "properties": {
    "Fuel Type Code":"ELEC",
    "NAME":"PPA AIRPORT EV",
    "ADDRESS":"4400 Island Ave",
    "Intersection Directions":"ECONOMY LOT 1; Adjacent to the Economy Toll plaza. Parking is only permitted if the car is plugged in.\nECONOMY LOT 2; Adjacent to the Economy Toll plaza. Parking is only permitted if the car is plugged in.",
    "City":"Philadelphia",
    "State":"PA",
    "ZIP":19153,
    "Plus4":"",
    "Groups With Access Code":"Public",
    "EV Level1 EVSE Num":null,
    "EV Level2 EVSE Num":4,
    "EV DC Fast Count":null,
    "EVNETWORK":"ChargePoint Network",
    "EV Connector Types":"J1772"
    }
  },
  {
    "type": "Feature",
    "geometry": {
       "type": "Point",
       "coordinates":  [ -80.4497588,41.2465001 ]
    },
    "properties": {
    "Fuel Type Code":"ELEC",
    "NAME":"Montrose Nissan",
    "ADDRESS":"1455 N Hermitage Rd",
    "Intersection Directions":"",
    "City":"Hermitage",
    "State":"PA",
    "ZIP":16148,
    "Plus4":"",
    "Groups With Access Code":"Public - Call ahead",
    "EV Level1 EVSE Num":null,
    "EV Level2 EVSE Num":1,
    "EV DC Fast Count":null,
    "EVNETWORK":"",
    "EV Connector Types":"J1772"
    }
  },
  {
    "type": "Feature",
    "geometry": {
       "type": "Point",
       "coordinates":  [ -75.006912,40.1387092 ]
    },
    "properties": {
    "Fuel Type Code":"ELEC",
    "NAME":"Colonial Nissan",
    "ADDRESS":"117 Bustleton Pike",
    "Intersection Directions":"",
    "City":"Feasterville",
    "State":"PA",
    "ZIP":19053,
    "Plus4":"",
    "Groups With Access Code":"Public - Call ahead",
    "EV Level1 EVSE Num":null,
    "EV Level2 EVSE Num":1,
    "EV DC Fast Count":null,
    "EVNETWORK":"",
    "EV Connector Types":"J1772"
    }
  },
  {
    "type": "Feature",
    "geometry": {
       "type": "Point",
       "coordinates":  [ -77.18987,40.198777 ]
    },
    "properties": {
    "Fuel Type Code":"ELEC",
    "NAME":"Carlisle House Bed & Breakfast",
    "ADDRESS":"148 S Hanover St",
    "Intersection Directions":"Located at S Hanover St and W South St",
    "City":"Carlisle",
    "State":"PA",
    "ZIP":17013,
    "Plus4":"",
    "Groups With Access Code":"Public - Call ahead",
    "EV Level1 EVSE Num":null,
    "EV Level2 EVSE Num":2,
    "EV DC Fast Count":null,
    "EVNETWORK":"Tesla",
    "EV Connector Types":"J1772 TESLA"
    }
  },
  {
    "type": "Feature",
    "geometry": {
       "type": "Point",
       "coordinates":  [ -75.943771,40.314814 ]
    },
    "properties": {
    "Fuel Type Code":"ELEC",
    "NAME":"BMWOFREADING",
    "ADDRESS":"1015 Lancaster Ave",
    "Intersection Directions":"STATION 01",
    "City":"Reading",
    "State":"PA",
    "ZIP":19607,
    "Plus4":"",
    "Groups With Access Code":"Public",
    "EV Level1 EVSE Num":null,
    "EV Level2 EVSE Num":2,
    "EV DC Fast Count":null,
    "EVNETWORK":"ChargePoint Network",
    "EV Connector Types":"J1772"
    }
  },
  {
    "type": "Feature",
    "geometry": {
       "type": "Point",
       "coordinates":  [ -75.191495,39.954278 ]
    },
    "properties": {
    "Fuel Type Code":"ELEC",
    "NAME":"University of Pennsylvania",
    "ADDRESS":"3386 Chestnut Street",
    "Intersection Directions":"",
    "City":"Philadelphia",
    "State":"PA",
    "ZIP":19104,
    "Plus4":"",
    "Groups With Access Code":"Public",
    "EV Level1 EVSE Num":null,
    "EV Level2 EVSE Num":4,
    "EV DC Fast Count":null,
    "EVNETWORK":"Blink Network",
    "EV Connector Types":"J1772"
    }
  },
  {
    "type": "Feature",
    "geometry": {
       "type": "Point",
       "coordinates":  [ -79.94826508,40.51149368 ]
    },
    "properties": {
    "Fuel Type Code":"ELEC",
    "NAME":"DD - Etna",
    "ADDRESS":"911 Butler Street",
    "Intersection Directions":"",
    "City":"Etna",
    "State":"PA",
    "ZIP":15223,
    "Plus4":"",
    "Groups With Access Code":"Public - Card key at all times",
    "EV Level1 EVSE Num":null,
    "EV Level2 EVSE Num":null,
    "EV DC Fast Count":1,
    "EVNETWORK":"eVgo Network",
    "EV Connector Types":"J1772COMBO"
    }
  },
  {
    "type": "Feature",
    "geometry": {
       "type": "Point",
       "coordinates":  [ -79.9476356,40.4545923 ]
    },
    "properties": {
    "Fuel Type Code":"ELEC",
    "NAME":"P & W BMW",
    "ADDRESS":"837-899 S Millvale Ave",
    "Intersection Directions":"STATION 01",
    "City":"Pittsburgh",
    "State":"PA",
    "ZIP":15213,
    "Plus4":"",
    "Groups With Access Code":"Public",
    "EV Level1 EVSE Num":null,
    "EV Level2 EVSE Num":2,
    "EV DC Fast Count":null,
    "EVNETWORK":"ChargePoint Network",
    "EV Connector Types":"J1772"
    }
  },
  {
    "type": "Feature",
    "geometry": {
       "type": "Point",
       "coordinates":  [ -75.344286,39.878709 ]
    },
    "properties": {
    "Fuel Type Code":"ELEC",
    "NAME":"Woodlyn Exxon",
    "ADDRESS":"1229 MacDade Blvd",
    "Intersection Directions":"",
    "City":"Woodlyn",
    "State":"PA",
    "ZIP":19094,
    "Plus4":"",
    "Groups With Access Code":"Public",
    "EV Level1 EVSE Num":null,
    "EV Level2 EVSE Num":2,
    "EV DC Fast Count":null,
    "EVNETWORK":"",
    "EV Connector Types":"J1772"
    }
  },
  {
    "type": "Feature",
    "geometry": {
       "type": "Point",
       "coordinates":  [ -76.1901723,40.1873763 ]
    },
    "properties": {
    "Fuel Type Code":"ELEC",
    "NAME":"Historic Smithton Inn",
    "ADDRESS":"900 W Main St",
    "Intersection Directions":"",
    "City":"Ephrata",
    "State":"PA",
    "ZIP":17522,
    "Plus4":"",
    "Groups With Access Code":"Public - Call ahead",
    "EV Level1 EVSE Num":null,
    "EV Level2 EVSE Num":2,
    "EV DC Fast Count":null,
    "EVNETWORK":"Tesla",
    "EV Connector Types":"TESLA J1772"
    }
  },
  {
    "type": "Feature",
    "geometry": {
       "type": "Point",
       "coordinates":  [ -80.1906173,40.4139037 ]
    },
    "properties": {
    "Fuel Type Code":"ELEC",
    "NAME":"Biber's Garage",
    "ADDRESS":"1250 McKee Rd",
    "Intersection Directions":"",
    "City":"Oakdale",
    "State":"PA",
    "ZIP":15071,
    "Plus4":"",
    "Groups With Access Code":"Public",
    "EV Level1 EVSE Num":null,
    "EV Level2 EVSE Num":1,
    "EV DC Fast Count":null,
    "EVNETWORK":"",
    "EV Connector Types":"J1772"
    }
  },
  {
    "type": "Feature",
    "geometry": {
       "type": "Point",
       "coordinates":  [ -79.895965,40.489279 ]
    },
    "properties": {
    "Fuel Type Code":"ELEC",
    "NAME":"University of Pittsburgh Medical Center - St Margaret's Parking Lot",
    "ADDRESS":"815 Freeport Rd",
    "Intersection Directions":"",
    "City":"Pittsburgh",
    "State":"PA",
    "ZIP":15215,
    "Plus4":"",
    "Groups With Access Code":"Public",
    "EV Level1 EVSE Num":null,
    "EV Level2 EVSE Num":1,
    "EV DC Fast Count":null,
    "EVNETWORK":"",
    "EV Connector Types":"J1772"
    }
  },
  {
    "type": "Feature",
    "geometry": {
       "type": "Point",
       "coordinates":  [ -75.6321627,39.8459468 ]
    },
    "properties": {
    "Fuel Type Code":"ELEC",
    "NAME":"Fairville Inn - Tesla",
    "ADDRESS":"506 Kennett Pike",
    "Intersection Directions":"",
    "City":"Chadds Ford",
    "State":"PA",
    "ZIP":19317,
    "Plus4":"",
    "Groups With Access Code":"Public - Call ahead",
    "EV Level1 EVSE Num":null,
    "EV Level2 EVSE Num":1,
    "EV DC Fast Count":null,
    "EVNETWORK":"Tesla",
    "EV Connector Types":"TESLA"
    }
  },
  {
    "type": "Feature",
    "geometry": {
       "type": "Point",
       "coordinates":  [ -75.165332,39.954677 ]
    },
    "properties": {
    "Fuel Type Code":"ELEC",
    "NAME":"One Parkway (City of Philadelphia)",
    "ADDRESS":"1515 Arch Street",
    "Intersection Directions":"",
    "City":"Philadelphia",
    "State":"PA",
    "ZIP":19102,
    "Plus4":"",
    "Groups With Access Code":"Public",
    "EV Level1 EVSE Num":null,
    "EV Level2 EVSE Num":2,
    "EV DC Fast Count":null,
    "EVNETWORK":"Blink Network",
    "EV Connector Types":"J1772"
    }
  },
  {
    "type": "Feature",
    "geometry": {
       "type": "Point",
       "coordinates":  [ -78.4026842,40.4801604 ]
    },
    "properties": {
    "Fuel Type Code":"ELEC",
    "NAME":"Sheetz Store #187",
    "ADDRESS":"400 E Plank RD",
    "Intersection Directions":"",
    "City":"Altoona",
    "State":"PA",
    "ZIP":16602,
    "Plus4":"",
    "Groups With Access Code":"Public",
    "EV Level1 EVSE Num":null,
    "EV Level2 EVSE Num":null,
    "EV DC Fast Count":1,
    "EVNETWORK":"",
    "EV Connector Types":"CHADEMO"
    }
  },
  {
    "type": "Feature",
    "geometry": {
       "type": "Point",
       "coordinates":  [ -80.139514,40.433172 ]
    },
    "properties": {
    "Fuel Type Code":"ELEC",
    "NAME":"Robinson Mall",
    "ADDRESS":"100 Robinson Centre",
    "Intersection Directions":"",
    "City":"Pittsburgh",
    "State":"PA",
    "ZIP":15025,
    "Plus4":"",
    "Groups With Access Code":"Public",
    "EV Level1 EVSE Num":null,
    "EV Level2 EVSE Num":4,
    "EV DC Fast Count":null,
    "EVNETWORK":"",
    "EV Connector Types":"J1772"
    }
  },
  {
    "type": "Feature",
    "geometry": {
       "type": "Point",
       "coordinates":  [ -80.0070572,40.434227 ]
    },
    "properties": {
    "Fuel Type Code":"ELEC",
    "NAME":"CARCHARGING",
    "ADDRESS":"301 West Station Square Drive",
    "Intersection Directions":"STATION SQUARE; Enter garage and make first right. Station in first spot.",
    "City":"Pittsburgh",
    "State":"PA",
    "ZIP":15203,
    "Plus4":"",
    "Groups With Access Code":"Public",
    "EV Level1 EVSE Num":null,
    "EV Level2 EVSE Num":1,
    "EV DC Fast Count":null,
    "EVNETWORK":"ChargePoint Network",
    "EV Connector Types":"J1772"
    }
  },
  {
    "type": "Feature",
    "geometry": {
       "type": "Point",
       "coordinates":  [ -79.9397796,40.4548817 ]
    },
    "properties": {
    "Fuel Type Code":"ELEC",
    "NAME":"University of Pittsburgh Medical Center - Hillman Center",
    "ADDRESS":"5230 Centre Ave",
    "Intersection Directions":"",
    "City":"Pittsburgh",
    "State":"PA",
    "ZIP":15213,
    "Plus4":"",
    "Groups With Access Code":"Public",
    "EV Level1 EVSE Num":null,
    "EV Level2 EVSE Num":1,
    "EV DC Fast Count":null,
    "EVNETWORK":"",
    "EV Connector Types":"J1772"
    }
  },
  {
    "type": "Feature",
    "geometry": {
       "type": "Point",
       "coordinates":  [ -75.568763,39.9088991 ]
    },
    "properties": {
    "Fuel Type Code":"ELEC",
    "NAME":"OTTOS BMW",
    "ADDRESS":"1275 Wilmington Pike",
    "Intersection Directions":"STATION 01; -",
    "City":"West Chester",
    "State":"PA",
    "ZIP":19382,
    "Plus4":"",
    "Groups With Access Code":"Public",
    "EV Level1 EVSE Num":null,
    "EV Level2 EVSE Num":1,
    "EV DC Fast Count":null,
    "EVNETWORK":"ChargePoint Network",
    "EV Connector Types":"J1772"
    }
  },
  {
    "type": "Feature",
    "geometry": {
       "type": "Point",
       "coordinates":  [ -76.6899873,40.2981994 ]
    },
    "properties": {
    "Fuel Type Code":"ELEC",
    "NAME":"AACA Antique Automobile Museum",
    "ADDRESS":"161 Museum Dr",
    "Intersection Directions":"",
    "City":"Hummelstown",
    "State":"PA",
    "ZIP":17036,
    "Plus4":"",
    "Groups With Access Code":"Public",
    "EV Level1 EVSE Num":null,
    "EV Level2 EVSE Num":3,
    "EV DC Fast Count":null,
    "EVNETWORK":"Tesla",
    "EV Connector Types":"TESLA J1772"
    }
  },
  {
    "type": "Feature",
    "geometry": {
       "type": "Point",
       "coordinates":  [ -79.772186,40.43237 ]
    },
    "properties": {
    "Fuel Type Code":"ELEC",
    "NAME":"Giant Eagle - Ames Plaza",
    "ADDRESS":"4010 Monroeville Blvd",
    "Intersection Directions":"",
    "City":"Monroeville",
    "State":"PA",
    "ZIP":15146,
    "Plus4":"",
    "Groups With Access Code":"Public",
    "EV Level1 EVSE Num":null,
    "EV Level2 EVSE Num":2,
    "EV DC Fast Count":null,
    "EVNETWORK":"",
    "EV Connector Types":"J1772"
    }
  },
  {
    "type": "Feature",
    "geometry": {
       "type": "Point",
       "coordinates":  [ -76.2884552,39.9948422 ]
    },
    "properties": {
    "Fuel Type Code":"ELEC",
    "NAME":"Hollinger House Bed and Breakfast - Tesla",
    "ADDRESS":"2336 Hollinger Rd",
    "Intersection Directions":"",
    "City":"Lancaster",
    "State":"PA",
    "ZIP":17602,
    "Plus4":"",
    "Groups With Access Code":"Public",
    "EV Level1 EVSE Num":null,
    "EV Level2 EVSE Num":2,
    "EV DC Fast Count":null,
    "EVNETWORK":"Tesla",
    "EV Connector Types":"TESLA"
    }
  },
  {
    "type": "Feature",
    "geometry": {
       "type": "Point",
       "coordinates":  [ -80.2112921,40.2164404 ]
    },
    "properties": {
    "Fuel Type Code":"ELEC",
    "NAME":"WASHINGTON",
    "ADDRESS":"2200 Tanger Blvd",
    "Intersection Directions":"TANGER EV 1; I-79, Exit 41. Tanger is located across from The Meadows Casino. Turn up Tanger Blvd. Turn Right into Tanger. Chargers located at the front right of the center\nTANGER EV 2; I-79, Exit 41. Tanger is located across from The Meadows Casino. Turn up Tanger Blvd. Turn Right into Tanger. Chargers located at the front right of the center. ",
    "City":"Washington",
    "State":"PA",
    "ZIP":15301,
    "Plus4":"",
    "Groups With Access Code":"Public",
    "EV Level1 EVSE Num":null,
    "EV Level2 EVSE Num":4,
    "EV DC Fast Count":null,
    "EVNETWORK":"ChargePoint Network",
    "EV Connector Types":"J1772"
    }
  },
  {
    "type": "Feature",
    "geometry": {
       "type": "Point",
       "coordinates":  [ -79.8156209,40.432087 ]
    },
    "properties": {
    "Fuel Type Code":"ELEC",
    "NAME":"Pittsburgh East Nissan",
    "ADDRESS":"3355 William Penn Hwy",
    "Intersection Directions":"",
    "City":"Pittsburgh",
    "State":"PA",
    "ZIP":15235,
    "Plus4":"",
    "Groups With Access Code":"Public - Call ahead",
    "EV Level1 EVSE Num":null,
    "EV Level2 EVSE Num":1,
    "EV DC Fast Count":1,
    "EVNETWORK":"",
    "EV Connector Types":"J1772 CHADEMO"
    }
  },
  {
    "type": "Feature",
    "geometry": {
       "type": "Point",
       "coordinates":  [ -79.959196,40.444155 ]
    },
    "properties": {
    "Fuel Type Code":"ELEC",
    "NAME":"University of Pittsburgh - O'Hara Garage",
    "ADDRESS":"3915 O'Hara St",
    "Intersection Directions":"",
    "City":"Pittsburgh",
    "State":"PA",
    "ZIP":15213,
    "Plus4":"",
    "Groups With Access Code":"Public",
    "EV Level1 EVSE Num":null,
    "EV Level2 EVSE Num":2,
    "EV DC Fast Count":null,
    "EVNETWORK":"",
    "EV Connector Types":"J1772"
    }
  },
  {
    "type": "Feature",
    "geometry": {
       "type": "Point",
       "coordinates":  [ -79.9975175,40.1316429 ]
    },
    "properties": {
    "Fuel Type Code":"ELEC",
    "NAME":"Best Western - Bentleyville",
    "ADDRESS":"101 Gosia Dr",
    "Intersection Directions":"",
    "City":"Bentleyville",
    "State":"PA",
    "ZIP":15314,
    "Plus4":"",
    "Groups With Access Code":"Public",
    "EV Level1 EVSE Num":null,
    "EV Level2 EVSE Num":1,
    "EV DC Fast Count":null,
    "EVNETWORK":"",
    "EV Connector Types":"J1772"
    }
  },
  {
    "type": "Feature",
    "geometry": {
       "type": "Point",
       "coordinates":  [ -75.2844097,40.0046735 ]
    },
    "properties": {
    "Fuel Type Code":"ELEC",
    "NAME":"Ardmore Nissan",
    "ADDRESS":"265 E Lancaster Ave",
    "Intersection Directions":"",
    "City":"Ardmore",
    "State":"PA",
    "ZIP":19003,
    "Plus4":"",
    "Groups With Access Code":"Public - Call ahead",
    "EV Level1 EVSE Num":null,
    "EV Level2 EVSE Num":1,
    "EV DC Fast Count":null,
    "EVNETWORK":"",
    "EV Connector Types":"J1772"
    }
  },
  {
    "type": "Feature",
    "geometry": {
       "type": "Point",
       "coordinates":  [ -75.308621,39.9255069 ]
    },
    "properties": {
    "Fuel Type Code":"ELEC",
    "NAME":"AAA - Clifton Heights",
    "ADDRESS":"5233 W. Baltimore Avenue",
    "Intersection Directions":"",
    "City":"Clifton Heights",
    "State":"PA",
    "ZIP":19018,
    "Plus4":"",
    "Groups With Access Code":"Public",
    "EV Level1 EVSE Num":null,
    "EV Level2 EVSE Num":1,
    "EV DC Fast Count":null,
    "EVNETWORK":"Blink Network",
    "EV Connector Types":"J1772"
    }
  },
  {
    "type": "Feature",
    "geometry": {
       "type": "Point",
       "coordinates":  [ -75.701705,39.858547 ]
    },
    "properties": {
    "Fuel Type Code":"ELEC",
    "NAME":"Tri-M Group LLC",
    "ADDRESS":"204 Gale Lane",
    "Intersection Directions":"",
    "City":"Kennett Square",
    "State":"PA",
    "ZIP":19348,
    "Plus4":"",
    "Groups With Access Code":"Public",
    "EV Level1 EVSE Num":null,
    "EV Level2 EVSE Num":2,
    "EV DC Fast Count":null,
    "EVNETWORK":"Blink Network",
    "EV Connector Types":"J1772"
    }
  },
  {
    "type": "Feature",
    "geometry": {
       "type": "Point",
       "coordinates":  [ -75.172869,39.955672 ]
    },
    "properties": {
    "Fuel Type Code":"ELEC",
    "NAME":"Philadelphia Horticultural Society",
    "ADDRESS":"100 N. 20th Street",
    "Intersection Directions":"",
    "City":"Philadelphia",
    "State":"PA",
    "ZIP":19107,
    "Plus4":"",
    "Groups With Access Code":"Public",
    "EV Level1 EVSE Num":null,
    "EV Level2 EVSE Num":2,
    "EV DC Fast Count":null,
    "EVNETWORK":"Blink Network",
    "EV Connector Types":"J1772"
    }
  },
  {
    "type": "Feature",
    "geometry": {
       "type": "Point",
       "coordinates":  [ -76.3864954,40.1690978 ]
    },
    "properties": {
    "Fuel Type Code":"ELEC",
    "NAME":"Molly's Convenience Store",
    "ADDRESS":"35 Doe Run Rd",
    "Intersection Directions":"",
    "City":"Manheim",
    "State":"PA",
    "ZIP":17545,
    "Plus4":"",
    "Groups With Access Code":"Public",
    "EV Level1 EVSE Num":null,
    "EV Level2 EVSE Num":2,
    "EV DC Fast Count":null,
    "EVNETWORK":"",
    "EV Connector Types":"J1772"
    }
  },
  {
    "type": "Feature",
    "geometry": {
       "type": "Point",
       "coordinates":  [ -75.3019238,40.071011 ]
    },
    "properties": {
    "Fuel Type Code":"ELEC",
    "NAME":"AMERISOURCE",
    "ADDRESS":"287-299 Washington St",
    "Intersection Directions":"EV 1; Parking Garage on First Floor",
    "City":"Conshohocken",
    "State":"PA",
    "ZIP":19428,
    "Plus4":"",
    "Groups With Access Code":"Public",
    "EV Level1 EVSE Num":null,
    "EV Level2 EVSE Num":2,
    "EV DC Fast Count":null,
    "EVNETWORK":"ChargePoint Network",
    "EV Connector Types":"J1772"
    }
  },
  {
    "type": "Feature",
    "geometry": {
       "type": "Point",
       "coordinates":  [ -75.232603,40.225361 ]
    },
    "properties": {
    "Fuel Type Code":"ELEC",
    "NAME":"Montgomeryville Nissan",
    "ADDRESS":"991 Bethlehem Pike",
    "Intersection Directions":"Intersection of Route 309 and Stump Road.",
    "City":"Montgomeryville",
    "State":"PA",
    "ZIP":18936,
    "Plus4":"",
    "Groups With Access Code":"Public - Call ahead",
    "EV Level1 EVSE Num":null,
    "EV Level2 EVSE Num":1,
    "EV DC Fast Count":null,
    "EVNETWORK":"",
    "EV Connector Types":"J1772"
    }
  },
  {
    "type": "Feature",
    "geometry": {
       "type": "Point",
       "coordinates":  [ -80.1775942,40.4637868 ]
    },
    "properties": {
    "Fuel Type Code":"ELEC",
    "NAME":"FedEx",
    "ADDRESS":"1000 FedEx Dr",
    "Intersection Directions":"",
    "City":"Moon Township",
    "State":"PA",
    "ZIP":15108,
    "Plus4":"",
    "Groups With Access Code":"Public",
    "EV Level1 EVSE Num":null,
    "EV Level2 EVSE Num":2,
    "EV DC Fast Count":null,
    "EVNETWORK":"",
    "EV Connector Types":"J1772"
    }
  },
  {
    "type": "Feature",
    "geometry": {
       "type": "Point",
       "coordinates":  [ -76.770092,40.198995 ]
    },
    "properties": {
    "Fuel Type Code":"ELEC",
    "NAME":"Harrisburg International Airport Cell Phone Parking Lot",
    "ADDRESS":"1 Terminal Drive",
    "Intersection Directions":"Cell Phone Lot\n",
    "City":"Middletown",
    "State":"PA",
    "ZIP":17057,
    "Plus4":"",
    "Groups With Access Code":"Public",
    "EV Level1 EVSE Num":null,
    "EV Level2 EVSE Num":null,
    "EV DC Fast Count":2,
    "EVNETWORK":"Blink Network",
    "EV Connector Types":"CHADEMO"
    }
  },
  {
    "type": "Feature",
    "geometry": {
       "type": "Point",
       "coordinates":  [ -75.124183,40.107777 ]
    },
    "properties": {
    "Fuel Type Code":"ELEC",
    "NAME":"Faulkner Nissan",
    "ADDRESS":"900 Old York Rd",
    "Intersection Directions":"",
    "City":"Jenkintown",
    "State":"PA",
    "ZIP":19046,
    "Plus4":"",
    "Groups With Access Code":"Public - Call ahead",
    "EV Level1 EVSE Num":null,
    "EV Level2 EVSE Num":1,
    "EV DC Fast Count":null,
    "EVNETWORK":"",
    "EV Connector Types":"J1772"
    }
  },
  {
    "type": "Feature",
    "geometry": {
       "type": "Point",
       "coordinates":  [ -76.3387877,40.0774792 ]
    },
    "properties": {
    "Fuel Type Code":"ELEC",
    "NAME":"FAULKNER BMW",
    "ADDRESS":"1510 Commerce Dr",
    "Intersection Directions":"STATION 01",
    "City":"Lancaster",
    "State":"PA",
    "ZIP":17601,
    "Plus4":"",
    "Groups With Access Code":"Public",
    "EV Level1 EVSE Num":null,
    "EV Level2 EVSE Num":1,
    "EV DC Fast Count":null,
    "EVNETWORK":"ChargePoint Network",
    "EV Connector Types":"J1772"
    }
  },
  {
    "type": "Feature",
    "geometry": {
       "type": "Point",
       "coordinates":  [ -76.8988566,40.3243252 ]
    },
    "properties": {
    "Fuel Type Code":"ELEC",
    "NAME":"Exxon - Lehigh Gas Station and Convenience Store",
    "ADDRESS":"4361 N Front St",
    "Intersection Directions":"Charger located on the left side of the building. ",
    "City":"Harrisburg",
    "State":"PA",
    "ZIP":17110,
    "Plus4":"",
    "Groups With Access Code":"Public",
    "EV Level1 EVSE Num":null,
    "EV Level2 EVSE Num":2,
    "EV DC Fast Count":null,
    "EVNETWORK":"",
    "EV Connector Types":"J1772"
    }
  },
  {
    "type": "Feature",
    "geometry": {
       "type": "Point",
       "coordinates":  [ -76.6683154,40.335223 ]
    },
    "properties": {
    "Fuel Type Code":"ELEC",
    "NAME":"Inn at Westwynd Farm - Tesla",
    "ADDRESS":"1620 Sand Beach Rd",
    "Intersection Directions":"",
    "City":"Hummelstown",
    "State":"PA",
    "ZIP":17036,
    "Plus4":"",
    "Groups With Access Code":"Public",
    "EV Level1 EVSE Num":null,
    "EV Level2 EVSE Num":1,
    "EV DC Fast Count":null,
    "EVNETWORK":"Tesla",
    "EV Connector Types":"TESLA"
    }
  },
  {
    "type": "Feature",
    "geometry": {
       "type": "Point",
       "coordinates":  [ -75.1056878,40.2103663 ]
    },
    "properties": {
    "Fuel Type Code":"ELEC",
    "NAME":"O'Neil Nissan",
    "ADDRESS":"849 W Street Rd",
    "Intersection Directions":"",
    "City":"Warminster",
    "State":"PA",
    "ZIP":18974,
    "Plus4":"",
    "Groups With Access Code":"Public - Call ahead",
    "EV Level1 EVSE Num":null,
    "EV Level2 EVSE Num":1,
    "EV DC Fast Count":null,
    "EVNETWORK":"",
    "EV Connector Types":"J1772"
    }
  },
  {
    "type": "Feature",
    "geometry": {
       "type": "Point",
       "coordinates":  [ -75.5447103,39.8624315 ]
    },
    "properties": {
    "Fuel Type Code":"ELEC",
    "NAME":"CONCORDVILLE",
    "ADDRESS":"452 Wilmington West Chester Pike",
    "Intersection Directions":"452 WILLMINGTON; North Side Building",
    "City":"Glen Mills",
    "State":"PA",
    "ZIP":19342,
    "Plus4":"",
    "Groups With Access Code":"Public",
    "EV Level1 EVSE Num":null,
    "EV Level2 EVSE Num":null,
    "EV DC Fast Count":1,
    "EVNETWORK":"ChargePoint Network",
    "EV Connector Types":"CHADEMO"
    }
  },
  {
    "type": "Feature",
    "geometry": {
       "type": "Point",
       "coordinates":  [ -123.3651326,48.103483 ]
    },
    "properties": {
    "Fuel Type Code":"ELEC",
    "NAME":"Cocoon Coffee House - Tesla",
    "ADDRESS":"8 Old Route 66",
    "Intersection Directions":"",
    "City":"Hawley",
    "State":"PA",
    "ZIP":18428,
    "Plus4":"",
    "Groups With Access Code":"Public",
    "EV Level1 EVSE Num":null,
    "EV Level2 EVSE Num":1,
    "EV DC Fast Count":null,
    "EVNETWORK":"Tesla",
    "EV Connector Types":"TESLA"
    }
  },
  {
    "type": "Feature",
    "geometry": {
       "type": "Point",
       "coordinates":  [ -75.172088,39.954784 ]
    },
    "properties": {
    "Fuel Type Code":"ELEC",
    "NAME":"Central Parking - Kennedy House",
    "ADDRESS":"1901 JFK Blvd.",
    "Intersection Directions":"Located on 1st floor at entrance on \n19th St.\n",
    "City":"Philadelphia",
    "State":"PA",
    "ZIP":19103,
    "Plus4":"",
    "Groups With Access Code":"Public",
    "EV Level1 EVSE Num":null,
    "EV Level2 EVSE Num":null,
    "EV DC Fast Count":2,
    "EVNETWORK":"Blink Network",
    "EV Connector Types":"CHADEMO"
    }
  },
  {
    "type": "Feature",
    "geometry": {
       "type": "Point",
       "coordinates":  [ -75.1607852,39.948892 ]
    },
    "properties": {
    "Fuel Type Code":"ELEC",
    "NAME":"Parkway Corporation 5",
    "ADDRESS":"1202 Walnut Street",
    "Intersection Directions":"",
    "City":"Philadelphia",
    "State":"PA",
    "ZIP":19107,
    "Plus4":"",
    "Groups With Access Code":"Public",
    "EV Level1 EVSE Num":null,
    "EV Level2 EVSE Num":4,
    "EV DC Fast Count":null,
    "EVNETWORK":"Blink Network",
    "EV Connector Types":"J1772"
    }
  },
  {
    "type": "Feature",
    "geometry": {
       "type": "Point",
       "coordinates":  [ -75.154317,39.954017 ]
    },
    "properties": {
    "Fuel Type Code":"ELEC",
    "NAME":"9th & Arch Parking Lot",
    "ADDRESS":"815 Arch Street",
    "Intersection Directions":"Station located in space 097 which is \ncloser to Arch St.\n",
    "City":"Philadelphia",
    "State":"PA",
    "ZIP":19106,
    "Plus4":"",
    "Groups With Access Code":"Public",
    "EV Level1 EVSE Num":null,
    "EV Level2 EVSE Num":1,
    "EV DC Fast Count":null,
    "EVNETWORK":"Blink Network",
    "EV Connector Types":"J1772"
    }
  },
  {
    "type": "Feature",
    "geometry": {
       "type": "Point",
       "coordinates":  [ -76.6610595,40.2880807 ]
    },
    "properties": {
    "Fuel Type Code":"ELEC",
    "NAME":"HCW PARKING",
    "ADDRESS":"251 Park Blvd",
    "Intersection Directions":"CHOCOLATEWORLD1\nCHOCOLATEWORLD2",
    "City":"Hershey",
    "State":"PA",
    "ZIP":17033,
    "Plus4":"",
    "Groups With Access Code":"Public",
    "EV Level1 EVSE Num":null,
    "EV Level2 EVSE Num":4,
    "EV DC Fast Count":null,
    "EVNETWORK":"ChargePoint Network",
    "EV Connector Types":"J1772"
    }
  },
  {
    "type": "Feature",
    "geometry": {
       "type": "Point",
       "coordinates":  [ -75.1384235,40.3336364 ]
    },
    "properties": {
    "Fuel Type Code":"ELEC",
    "NAME":"Fred Beans Nissan - Doylestown",
    "ADDRESS":"4469 W Swamp Rd",
    "Intersection Directions":"",
    "City":"Doylestown",
    "State":"PA",
    "ZIP":18901,
    "Plus4":"",
    "Groups With Access Code":"Public - Call ahead",
    "EV Level1 EVSE Num":null,
    "EV Level2 EVSE Num":1,
    "EV DC Fast Count":null,
    "EVNETWORK":"",
    "EV Connector Types":"J1772"
    }
  },
  {
    "type": "Feature",
    "geometry": {
       "type": "Point",
       "coordinates":  [ -80.0514972,40.6061288 ]
    },
    "properties": {
    "Fuel Type Code":"ELEC",
    "NAME":"Shults Ford Lincoln",
    "ADDRESS":"10401 Perry Hwy",
    "Intersection Directions":"",
    "City":"Wexford",
    "State":"PA",
    "ZIP":15090,
    "Plus4":"",
    "Groups With Access Code":"Public - Call ahead",
    "EV Level1 EVSE Num":null,
    "EV Level2 EVSE Num":2,
    "EV DC Fast Count":null,
    "EVNETWORK":"",
    "EV Connector Types":"J1772"
    }
  },
  {
    "type": "Feature",
    "geometry": {
       "type": "Point",
       "coordinates":  [ -75.520977,40.133093 ]
    },
    "properties": {
    "Fuel Type Code":"ELEC",
    "NAME":"Borough of Phoenixville - Borough Hall",
    "ADDRESS":"351 Bridge St",
    "Intersection Directions":"",
    "City":"Phoenixville",
    "State":"PA",
    "ZIP":19460,
    "Plus4":"",
    "Groups With Access Code":"Public",
    "EV Level1 EVSE Num":null,
    "EV Level2 EVSE Num":2,
    "EV DC Fast Count":null,
    "EVNETWORK":"",
    "EV Connector Types":"J1772"
    }
  },
  {
    "type": "Feature",
    "geometry": {
       "type": "Point",
       "coordinates":  [ -75.413057,40.04815 ]
    },
    "properties": {
    "Fuel Type Code":"ELEC",
    "NAME":"AAA - Wayne",
    "ADDRESS":"849 West Lancaster Avenue",
    "Intersection Directions":"",
    "City":"Wayne",
    "State":"PA",
    "ZIP":19087,
    "Plus4":"",
    "Groups With Access Code":"Public",
    "EV Level1 EVSE Num":null,
    "EV Level2 EVSE Num":2,
    "EV DC Fast Count":null,
    "EVNETWORK":"Blink Network",
    "EV Connector Types":"J1772"
    }
  },
  {
    "type": "Feature",
    "geometry": {
       "type": "Point",
       "coordinates":  [ -75.168046,39.952619 ]
    },
    "properties": {
    "Fuel Type Code":"ELEC",
    "NAME":"Liberty Place Garage",
    "ADDRESS":"1650 Market Street",
    "Intersection Directions":"",
    "City":"Philadelphia",
    "State":"PA",
    "ZIP":19103,
    "Plus4":"",
    "Groups With Access Code":"Public",
    "EV Level1 EVSE Num":null,
    "EV Level2 EVSE Num":2,
    "EV DC Fast Count":null,
    "EVNETWORK":"Blink Network",
    "EV Connector Types":"J1772"
    }
  },
  {
    "type": "Feature",
    "geometry": {
       "type": "Point",
       "coordinates":  [ -75.586903,40.025692 ]
    },
    "properties": {
    "Fuel Type Code":"ELEC",
    "NAME":"ING",
    "ADDRESS":"1475 Dunwoody Drive",
    "Intersection Directions":"",
    "City":"West Chester",
    "State":"PA",
    "ZIP":19380,
    "Plus4":"",
    "Groups With Access Code":"Public",
    "EV Level1 EVSE Num":null,
    "EV Level2 EVSE Num":1,
    "EV DC Fast Count":null,
    "EVNETWORK":"Blink Network",
    "EV Connector Types":"J1772"
    }
  },
  {
    "type": "Feature",
    "geometry": {
       "type": "Point",
       "coordinates":  [ -75.3543938,39.8891025 ]
    },
    "properties": {
    "Fuel Type Code":"ELEC",
    "NAME":"Loughead Nissan",
    "ADDRESS":"755 S Chester Rd",
    "Intersection Directions":"",
    "City":"Swarthmore",
    "State":"PA",
    "ZIP":19081,
    "Plus4":"",
    "Groups With Access Code":"Public - Call ahead",
    "EV Level1 EVSE Num":null,
    "EV Level2 EVSE Num":1,
    "EV DC Fast Count":null,
    "EVNETWORK":"",
    "EV Connector Types":"J1772"
    }
  },
  {
    "type": "Feature",
    "geometry": {
       "type": "Point",
       "coordinates":  [ -75.389217,39.91883 ]
    },
    "properties": {
    "Fuel Type Code":"ELEC",
    "NAME":"Community Energy",
    "ADDRESS":"11 South Jackson Street",
    "Intersection Directions":"",
    "City":"Media",
    "State":"PA",
    "ZIP":19063,
    "Plus4":"",
    "Groups With Access Code":"Public",
    "EV Level1 EVSE Num":null,
    "EV Level2 EVSE Num":1,
    "EV DC Fast Count":null,
    "EVNETWORK":"Blink Network",
    "EV Connector Types":"J1772"
    }
  },
  {
    "type": "Feature",
    "geometry": {
       "type": "Point",
       "coordinates":  [ -75.8451904,41.2432847 ]
    },
    "properties": {
    "Fuel Type Code":"ELEC",
    "NAME":"Ken Pollock Nissan",
    "ADDRESS":"229 Mundy St",
    "Intersection Directions":"",
    "City":"Wilkes Barre",
    "State":"PA",
    "ZIP":18702,
    "Plus4":"",
    "Groups With Access Code":"Public - Call ahead",
    "EV Level1 EVSE Num":null,
    "EV Level2 EVSE Num":1,
    "EV DC Fast Count":null,
    "EVNETWORK":"",
    "EV Connector Types":"J1772"
    }
  },
  {
    "type": "Feature",
    "geometry": {
       "type": "Point",
       "coordinates":  [ -75.183005,39.9548502 ]
    },
    "properties": {
    "Fuel Type Code":"ELEC",
    "NAME":"Amtrak - 30th St Station",
    "ADDRESS":"2955 Market St",
    "Intersection Directions":"",
    "City":"Philadelphia",
    "State":"PA",
    "ZIP":19116,
    "Plus4":"",
    "Groups With Access Code":"Public",
    "EV Level1 EVSE Num":null,
    "EV Level2 EVSE Num":1,
    "EV DC Fast Count":2,
    "EVNETWORK":"",
    "EV Connector Types":"J1772 CHADEMO"
    }
  },
  {
    "type": "Feature",
    "geometry": {
       "type": "Point",
       "coordinates":  [ -79.994852,40.4441681 ]
    },
    "properties": {
    "Fuel Type Code":"ELEC",
    "NAME":"Classy Cab - Westin Convention Center",
    "ADDRESS":"1000 Penn Ave",
    "Intersection Directions":"",
    "City":"Pittsburgh",
    "State":"PA",
    "ZIP":15222,
    "Plus4":"",
    "Groups With Access Code":"Public",
    "EV Level1 EVSE Num":null,
    "EV Level2 EVSE Num":1,
    "EV DC Fast Count":null,
    "EVNETWORK":"",
    "EV Connector Types":"J1772"
    }
  },
  {
    "type": "Feature",
    "geometry": {
       "type": "Point",
       "coordinates":  [ -79.9397796,40.4548817 ]
    },
    "properties": {
    "Fuel Type Code":"ELEC",
    "NAME":"University of Pittsburgh Medical Center - Shadyside",
    "ADDRESS":"5230 Centre Ave",
    "Intersection Directions":"",
    "City":"Pittsburgh",
    "State":"PA",
    "ZIP":15232,
    "Plus4":"",
    "Groups With Access Code":"Public",
    "EV Level1 EVSE Num":null,
    "EV Level2 EVSE Num":4,
    "EV DC Fast Count":null,
    "EVNETWORK":"",
    "EV Connector Types":"J1772"
    }
  },
  {
    "type": "Feature",
    "geometry": {
       "type": "Point",
       "coordinates":  [ -75.2783716,40.1806182 ]
    },
    "properties": {
    "Fuel Type Code":"ELEC",
    "NAME":"Normandy Farm Hotel & Conference Center",
    "ADDRESS":"1401 Morris Rd",
    "Intersection Directions":"",
    "City":"Blue Bell",
    "State":"PA",
    "ZIP":19422,
    "Plus4":"",
    "Groups With Access Code":"Public - Call ahead",
    "EV Level1 EVSE Num":null,
    "EV Level2 EVSE Num":4,
    "EV DC Fast Count":null,
    "EVNETWORK":"Tesla",
    "EV Connector Types":"TESLA J1772"
    }
  },
  {
    "type": "Feature",
    "geometry": {
       "type": "Point",
       "coordinates":  [ -76.6472557,40.2955963 ]
    },
    "properties": {
    "Fuel Type Code":"ELEC",
    "NAME":"HERSHEY",
    "ADDRESS":"83 Outlet Square",
    "Intersection Directions":"TANGER EV1 SO; ADJACENT TO PLAYGROUND\nTANGER EV2 NO; ADJACENT TO PLAYGROUND",
    "City":"Hershey",
    "State":"PA",
    "ZIP":17033,
    "Plus4":"",
    "Groups With Access Code":"Public",
    "EV Level1 EVSE Num":null,
    "EV Level2 EVSE Num":4,
    "EV DC Fast Count":null,
    "EVNETWORK":"ChargePoint Network",
    "EV Connector Types":"J1772"
    }
  },
  {
    "type": "Feature",
    "geometry": {
       "type": "Point",
       "coordinates":  [ -75.19561005,40.06566238 ]
    },
    "properties": {
    "Fuel Type Code":"ELEC",
    "NAME":"Trolley Car Diner",
    "ADDRESS":"7619 Germantown Ave",
    "Intersection Directions":"The charging station is located in the back of the parking lot next to the diner.",
    "City":"Philadelphia",
    "State":"PA",
    "ZIP":19119,
    "Plus4":"",
    "Groups With Access Code":"Public",
    "EV Level1 EVSE Num":null,
    "EV Level2 EVSE Num":1,
    "EV DC Fast Count":null,
    "EVNETWORK":"Greenlots",
    "EV Connector Types":"J1772"
    }
  },
  {
    "type": "Feature",
    "geometry": {
       "type": "Point",
       "coordinates":  [ -75.185293,39.956308 ]
    },
    "properties": {
    "Fuel Type Code":"ELEC",
    "NAME":"3003 JFK Parking Lot",
    "ADDRESS":"3003 N John F Kennedy Blvd",
    "Intersection Directions":"",
    "City":"Philadelphia",
    "State":"PA",
    "ZIP":19104,
    "Plus4":"",
    "Groups With Access Code":"Public",
    "EV Level1 EVSE Num":null,
    "EV Level2 EVSE Num":2,
    "EV DC Fast Count":null,
    "EVNETWORK":"Blink Network",
    "EV Connector Types":"J1772"
    }
  },
  {
    "type": "Feature",
    "geometry": {
       "type": "Point",
       "coordinates":  [ -75.4062607,40.1283725 ]
    },
    "properties": {
    "Fuel Type Code":"ELEC",
    "NAME":"Homewood Suites - Tesla",
    "ADDRESS":"781 Shannondell Blvd",
    "Intersection Directions":"",
    "City":"Eagleville",
    "State":"PA",
    "ZIP":19403,
    "Plus4":"",
    "Groups With Access Code":"Public",
    "EV Level1 EVSE Num":null,
    "EV Level2 EVSE Num":1,
    "EV DC Fast Count":null,
    "EVNETWORK":"Tesla",
    "EV Connector Types":"TESLA"
    }
  },
  {
    "type": "Feature",
    "geometry": {
       "type": "Point",
       "coordinates":  [ -75.192894,39.948688 ]
    },
    "properties": {
    "Fuel Type Code":"ELEC",
    "NAME":"The Children's Hospital of Philadelphia - Main Campus",
    "ADDRESS":"3615 Civic Center Boulevard",
    "Intersection Directions":"The Wood Garage - Parking Level B\n\nThe Wood Garage - Parking Level B\n",
    "City":"Philadelphia",
    "State":"PA",
    "ZIP":19104,
    "Plus4":"",
    "Groups With Access Code":"Public",
    "EV Level1 EVSE Num":null,
    "EV Level2 EVSE Num":2,
    "EV DC Fast Count":null,
    "EVNETWORK":"Blink Network",
    "EV Connector Types":"J1772"
    }
  },
  {
    "type": "Feature",
    "geometry": {
       "type": "Point",
       "coordinates":  [ -79.1604653,40.6229168 ]
    },
    "properties": {
    "Fuel Type Code":"ELEC",
    "NAME":"Mark Arbuckle Nissan",
    "ADDRESS":"1080 Philadelphia St",
    "Intersection Directions":"",
    "City":"Indiana",
    "State":"PA",
    "ZIP":15701,
    "Plus4":"",
    "Groups With Access Code":"Public - Call ahead",
    "EV Level1 EVSE Num":null,
    "EV Level2 EVSE Num":1,
    "EV DC Fast Count":null,
    "EVNETWORK":"",
    "EV Connector Types":"J1772"
    }
  },
  {
    "type": "Feature",
    "geometry": {
       "type": "Point",
       "coordinates":  [ -75.776341,40.121937 ]
    },
    "properties": {
    "Fuel Type Code":"ELEC",
    "NAME":"Peter J. Camiel Service Plaza (Milepost 304.8 WB)",
    "ADDRESS":"PA Turnpike 304.8 WB/1 Marsh Road",
    "Intersection Directions":"",
    "City":"Elverson",
    "State":"PA",
    "ZIP":19520,
    "Plus4":"",
    "Groups With Access Code":"Public",
    "EV Level1 EVSE Num":null,
    "EV Level2 EVSE Num":1,
    "EV DC Fast Count":2,
    "EVNETWORK":"Blink Network",
    "EV Connector Types":"CHADEMO J1772"
    }
  },
  {
    "type": "Feature",
    "geometry": {
       "type": "Point",
       "coordinates":  [ -75.325529,40.0257689 ]
    },
    "properties": {
    "Fuel Type Code":"ELEC",
    "NAME":"MOM's of Rosemont",
    "ADDRESS":"1149 E. Lancaster Ave",
    "Intersection Directions":"",
    "City":"Bryn Mawr",
    "State":"PA",
    "ZIP":19010,
    "Plus4":"",
    "Groups With Access Code":"Public",
    "EV Level1 EVSE Num":null,
    "EV Level2 EVSE Num":2,
    "EV DC Fast Count":null,
    "EVNETWORK":"SemaCharge Network",
    "EV Connector Types":"J1772"
    }
  },
  {
    "type": "Feature",
    "geometry": {
       "type": "Point",
       "coordinates":  [ -79.566658,40.206132 ]
    },
    "properties": {
    "Fuel Type Code":"ELEC",
    "NAME":"New Stanton Service Plaza (Milepost 77.6 WB)",
    "ADDRESS":"724 New Stanton Plaza Road",
    "Intersection Directions":"",
    "City":"Hunker",
    "State":"PA",
    "ZIP":15639,
    "Plus4":"",
    "Groups With Access Code":"Public",
    "EV Level1 EVSE Num":null,
    "EV Level2 EVSE Num":1,
    "EV DC Fast Count":2,
    "EVNETWORK":"Blink Network",
    "EV Connector Types":"CHADEMO J1772"
    }
  },
  {
    "type": "Feature",
    "geometry": {
       "type": "Point",
       "coordinates":  [ -75.8967742,41.2606256 ]
    },
    "properties": {
    "Fuel Type Code":"ELEC",
    "NAME":"W. VALLEY BMW",
    "ADDRESS":"588 Market St",
    "Intersection Directions":"STATION 01; -",
    "City":"Kingston",
    "State":"PA",
    "ZIP":18704,
    "Plus4":"",
    "Groups With Access Code":"Public",
    "EV Level1 EVSE Num":null,
    "EV Level2 EVSE Num":2,
    "EV DC Fast Count":null,
    "EVNETWORK":"ChargePoint Network",
    "EV Connector Types":"J1772"
    }
  },
  {
    "type": "Feature",
    "geometry": {
       "type": "Point",
       "coordinates":  [ -75.175603,39.95284 ]
    },
    "properties": {
    "Fuel Type Code":"ELEC",
    "NAME":"Philly Micro",
    "ADDRESS":"26-30 S 21st St",
    "Intersection Directions":"",
    "City":"Philadelphia",
    "State":"PA",
    "ZIP":19103,
    "Plus4":"",
    "Groups With Access Code":"Public",
    "EV Level1 EVSE Num":null,
    "EV Level2 EVSE Num":2,
    "EV DC Fast Count":null,
    "EVNETWORK":"",
    "EV Connector Types":"J1772"
    }
  },
  {
    "type": "Feature",
    "geometry": {
       "type": "Point",
       "coordinates":  [ -75.2277756,39.8952181 ]
    },
    "properties": {
    "Fuel Type Code":"ELEC",
    "NAME":"The Parking Spot",
    "ADDRESS":"7600 Essington Ave",
    "Intersection Directions":"Located in the valet",
    "City":"Philadelphia",
    "State":"PA",
    "ZIP":19153,
    "Plus4":"",
    "Groups With Access Code":"Public",
    "EV Level1 EVSE Num":2,
    "EV Level2 EVSE Num":null,
    "EV DC Fast Count":null,
    "EVNETWORK":"",
    "EV Connector Types":"NEMA520"
    }
  },
  {
    "type": "Feature",
    "geometry": {
       "type": "Point",
       "coordinates":  [ -80.053738,40.6108492 ]
    },
    "properties": {
    "Fuel Type Code":"ELEC",
    "NAME":"Whole Foods Market",
    "ADDRESS":"10576 Perry Hwy",
    "Intersection Directions":"",
    "City":"Wexford",
    "State":"PA",
    "ZIP":15090,
    "Plus4":"",
    "Groups With Access Code":"Public",
    "EV Level1 EVSE Num":null,
    "EV Level2 EVSE Num":2,
    "EV DC Fast Count":null,
    "EVNETWORK":"",
    "EV Connector Types":"J1772"
    }
  },
  {
    "type": "Feature",
    "geometry": {
       "type": "Point",
       "coordinates":  [ -79.7846811,40.4357476 ]
    },
    "properties": {
    "Fuel Type Code":"ELEC",
    "NAME":"A&L BMW",
    "ADDRESS":"3776 William Penn Hwy",
    "Intersection Directions":"STATION 01; -",
    "City":"Monroeville",
    "State":"PA",
    "ZIP":15146,
    "Plus4":"",
    "Groups With Access Code":"Public",
    "EV Level1 EVSE Num":null,
    "EV Level2 EVSE Num":2,
    "EV DC Fast Count":null,
    "EVNETWORK":"ChargePoint Network",
    "EV Connector Types":"J1772"
    }
  },
  {
    "type": "Feature",
    "geometry": {
       "type": "Point",
       "coordinates":  [ -77.8815899,40.8046194 ]
    },
    "properties": {
    "Fuel Type Code":"ELEC",
    "NAME":"JOEL CONFER BMW",
    "ADDRESS":"116-122 Clinton Ave",
    "Intersection Directions":"STATION 01",
    "City":"State College",
    "State":"PA",
    "ZIP":16803,
    "Plus4":"",
    "Groups With Access Code":"Public",
    "EV Level1 EVSE Num":null,
    "EV Level2 EVSE Num":2,
    "EV DC Fast Count":null,
    "EVNETWORK":"ChargePoint Network",
    "EV Connector Types":"J1772"
    }
  },
  {
    "type": "Feature",
    "geometry": {
       "type": "Point",
       "coordinates":  [ -79.9928526,40.4479925 ]
    },
    "properties": {
    "Fuel Type Code":"ELEC",
    "NAME":"Ever Power - Seagate Building",
    "ADDRESS":"1251 Water Front Pl",
    "Intersection Directions":"",
    "City":"Pittsburgh",
    "State":"PA",
    "ZIP":15222,
    "Plus4":"",
    "Groups With Access Code":"Public",
    "EV Level1 EVSE Num":null,
    "EV Level2 EVSE Num":2,
    "EV DC Fast Count":null,
    "EVNETWORK":"",
    "EV Connector Types":"J1772"
    }
  },
  {
    "type": "Feature",
    "geometry": {
       "type": "Point",
       "coordinates":  [ -75.263665,39.987133 ]
    },
    "properties": {
    "Fuel Type Code":"ELEC",
    "NAME":"Lankenau Medical Center Parking Garage D",
    "ADDRESS":"100 East Lancaster Avenue",
    "Intersection Directions":"Lower Level\n",
    "City":"Wynnewood",
    "State":"PA",
    "ZIP":19096,
    "Plus4":"",
    "Groups With Access Code":"Public",
    "EV Level1 EVSE Num":null,
    "EV Level2 EVSE Num":null,
    "EV DC Fast Count":2,
    "EVNETWORK":"Blink Network",
    "EV Connector Types":"CHADEMO"
    }
  },
  {
    "type": "Feature",
    "geometry": {
       "type": "Point",
       "coordinates":  [ -75.224284,39.910659 ]
    },
    "properties": {
    "Fuel Type Code":"ELEC",
    "NAME":"Chapman Nissan",
    "ADDRESS":"6723 Essington Ave",
    "Intersection Directions":"",
    "City":"Philadelphia",
    "State":"PA",
    "ZIP":19153,
    "Plus4":"",
    "Groups With Access Code":"Public - Call ahead",
    "EV Level1 EVSE Num":null,
    "EV Level2 EVSE Num":1,
    "EV DC Fast Count":null,
    "EVNETWORK":"",
    "EV Connector Types":"J1772"
    }
  },
  {
    "type": "Feature",
    "geometry": {
       "type": "Point",
       "coordinates":  [ -79.9852854,40.4361368 ]
    },
    "properties": {
    "Fuel Type Code":"ELEC",
    "NAME":"University of Pittsburgh Medical Center - Mercy Hospital",
    "ADDRESS":"1400 Locust St",
    "Intersection Directions":"",
    "City":"Pittsburgh",
    "State":"PA",
    "ZIP":15219,
    "Plus4":"",
    "Groups With Access Code":"Public",
    "EV Level1 EVSE Num":null,
    "EV Level2 EVSE Num":1,
    "EV DC Fast Count":null,
    "EVNETWORK":"",
    "EV Connector Types":"J1772"
    }
  },
  {
    "type": "Feature",
    "geometry": {
       "type": "Point",
       "coordinates":  [ -79.9616773,40.4422726 ]
    },
    "properties": {
    "Fuel Type Code":"ELEC",
    "NAME":"University of Pittsburgh Medical Center - Presbyterian Garage",
    "ADDRESS":"255 Lothrup St",
    "Intersection Directions":"",
    "City":"Pittsburgh",
    "State":"PA",
    "ZIP":15213,
    "Plus4":"",
    "Groups With Access Code":"Public",
    "EV Level1 EVSE Num":null,
    "EV Level2 EVSE Num":3,
    "EV DC Fast Count":null,
    "EVNETWORK":"",
    "EV Connector Types":"J1772"
    }
  },
  {
    "type": "Feature",
    "geometry": {
       "type": "Point",
       "coordinates":  [ -75.147704,39.9356059 ]
    },
    "properties": {
    "Fuel Type Code":"ELEC",
    "NAME":"City of Philadelphia",
    "ADDRESS":"209 Montrose St",
    "Intersection Directions":"",
    "City":"Philadelphia",
    "State":"PA",
    "ZIP":19147,
    "Plus4":"",
    "Groups With Access Code":"Public",
    "EV Level1 EVSE Num":null,
    "EV Level2 EVSE Num":1,
    "EV DC Fast Count":null,
    "EVNETWORK":"",
    "EV Connector Types":"J1772"
    }
  },
  {
    "type": "Feature",
    "geometry": {
       "type": "Point",
       "coordinates":  [ -77.9008606,40.8089481 ]
    },
    "properties": {
    "Fuel Type Code":"ELEC",
    "NAME":"Sheetz Store #122",
    "ADDRESS":"1781 N Atherton St",
    "Intersection Directions":"",
    "City":"State College",
    "State":"PA",
    "ZIP":16803,
    "Plus4":"",
    "Groups With Access Code":"Public",
    "EV Level1 EVSE Num":null,
    "EV Level2 EVSE Num":null,
    "EV DC Fast Count":1,
    "EVNETWORK":"",
    "EV Connector Types":"CHADEMO"
    }
  },
  {
    "type": "Feature",
    "geometry": {
       "type": "Point",
       "coordinates":  [ -75.6856438,40.0627361 ]
    },
    "properties": {
    "Fuel Type Code":"ELEC",
    "NAME":"Eagleview Town Center",
    "ADDRESS":"539 Wellington Square",
    "Intersection Directions":"",
    "City":"Exton",
    "State":"PA",
    "ZIP":19341,
    "Plus4":"",
    "Groups With Access Code":"Public",
    "EV Level1 EVSE Num":null,
    "EV Level2 EVSE Num":2,
    "EV DC Fast Count":null,
    "EVNETWORK":"SemaCharge Network",
    "EV Connector Types":"J1772"
    }
  },
  {
    "type": "Feature",
    "geometry": {
       "type": "Point",
       "coordinates":  [ -75.65318,40.243841 ]
    },
    "properties": {
    "Fuel Type Code":"ELEC",
    "NAME":"Montgomery County Community College",
    "ADDRESS":"101 College Drive",
    "Intersection Directions":"",
    "City":"Pottstown",
    "State":"PA",
    "ZIP":19464,
    "Plus4":"",
    "Groups With Access Code":"Public",
    "EV Level1 EVSE Num":null,
    "EV Level2 EVSE Num":2,
    "EV DC Fast Count":null,
    "EVNETWORK":"Blink Network",
    "EV Connector Types":"J1772"
    }
  },
  {
    "type": "Feature",
    "geometry": {
       "type": "Point",
       "coordinates":  [ -80.108276,40.6838229 ]
    },
    "properties": {
    "Fuel Type Code":"ELEC",
    "NAME":"Residence Inn - Tesla",
    "ADDRESS":"1308 Freedom Rd",
    "Intersection Directions":"I-95 Exit 8/8A",
    "City":"Cranberry Township",
    "State":"PA",
    "ZIP":16066,
    "Plus4":"",
    "Groups With Access Code":"Public",
    "EV Level1 EVSE Num":null,
    "EV Level2 EVSE Num":null,
    "EV DC Fast Count":6,
    "EVNETWORK":"Tesla",
    "EV Connector Types":"TESLA"
    }
  },
  {
    "type": "Feature",
    "geometry": {
       "type": "Point",
       "coordinates":  [ -75.321721,39.955272 ]
    },
    "properties": {
    "Fuel Type Code":"ELEC",
    "NAME":"Drexel Hill Nissan",
    "ADDRESS":"5018 Township Line Rd",
    "Intersection Directions":"",
    "City":"Drexel Hill",
    "State":"PA",
    "ZIP":19026,
    "Plus4":"",
    "Groups With Access Code":"Public - Call ahead",
    "EV Level1 EVSE Num":null,
    "EV Level2 EVSE Num":1,
    "EV DC Fast Count":null,
    "EVNETWORK":"",
    "EV Connector Types":"J1772"
    }
  },
  {
    "type": "Feature",
    "geometry": {
       "type": "Point",
       "coordinates":  [ -79.813598,40.520945 ]
    },
    "properties": {
    "Fuel Type Code":"ELEC",
    "NAME":"Oakmont Plum Service Plaza (Milepost 49.3 EB)",
    "ADDRESS":"2000 Eastern Avenue",
    "Intersection Directions":"",
    "City":"Verona",
    "State":"PA",
    "ZIP":15147,
    "Plus4":"",
    "Groups With Access Code":"Public",
    "EV Level1 EVSE Num":null,
    "EV Level2 EVSE Num":1,
    "EV DC Fast Count":2,
    "EVNETWORK":"Blink Network",
    "EV Connector Types":"CHADEMO J1772"
    }
  },
  {
    "type": "Feature",
    "geometry": {
       "type": "Point",
       "coordinates":  [ -77.8756066,40.7576835 ]
    },
    "properties": {
    "Fuel Type Code":"ELEC",
    "NAME":"Nissan of State College",
    "ADDRESS":"3220 W College Ave",
    "Intersection Directions":"",
    "City":"State College",
    "State":"PA",
    "ZIP":16801,
    "Plus4":"",
    "Groups With Access Code":"Public - Call ahead",
    "EV Level1 EVSE Num":null,
    "EV Level2 EVSE Num":1,
    "EV DC Fast Count":null,
    "EVNETWORK":"",
    "EV Connector Types":"J1772"
    }
  },
  {
    "type": "Feature",
    "geometry": {
       "type": "Point",
       "coordinates":  [ -80.257567,40.496003 ]
    },
    "properties": {
    "Fuel Type Code":"ELEC",
    "NAME":"Pittsburgh International Airport - Short Term Parking",
    "ADDRESS":"1000 Airport Blvd",
    "Intersection Directions":"Located on levels 2 and 3.  Look for \"Power Up\" signs.",
    "City":"Pittsburgh",
    "State":"PA",
    "ZIP":15231,
    "Plus4":"",
    "Groups With Access Code":"Public",
    "EV Level1 EVSE Num":6,
    "EV Level2 EVSE Num":null,
    "EV DC Fast Count":null,
    "EVNETWORK":"",
    "EV Connector Types":"NEMA520"
    }
  },
  {
    "type": "Feature",
    "geometry": {
       "type": "Point",
       "coordinates":  [ -75.58927,40.39806 ]
    },
    "properties": {
    "Fuel Type Code":"ELEC",
    "NAME":"Quigley Chevrolet",
    "ADDRESS":"326 Main St",
    "Intersection Directions":"Between N 3rd & 4th on Rte 100; located in Service Area",
    "City":"Bally",
    "State":"PA",
    "ZIP":19503,
    "Plus4":"",
    "Groups With Access Code":"Public - Call ahead",
    "EV Level1 EVSE Num":null,
    "EV Level2 EVSE Num":2,
    "EV DC Fast Count":null,
    "EVNETWORK":"",
    "EV Connector Types":"J1772"
    }
  },
  {
    "type": "Feature",
    "geometry": {
       "type": "Point",
       "coordinates":  [ -76.2490178,40.0495491 ]
    },
    "properties": {
    "Fuel Type Code":"ELEC",
    "NAME":"HIGH HOTELS",
    "ADDRESS":"1931 Hospitality Drive",
    "Intersection Directions":"LC EV CHARGER; Please see Front Desk Staff for access card.",
    "City":"Lancaster",
    "State":"PA",
    "ZIP":17601,
    "Plus4":"",
    "Groups With Access Code":"Public",
    "EV Level1 EVSE Num":null,
    "EV Level2 EVSE Num":1,
    "EV DC Fast Count":null,
    "EVNETWORK":"ChargePoint Network",
    "EV Connector Types":"J1772"
    }
  },
  {
    "type": "Feature",
    "geometry": {
       "type": "Point",
       "coordinates":  [ -75.092018,40.184643 ]
    },
    "properties": {
    "Fuel Type Code":"ELEC",
    "NAME":"Colliers International - Building 101",
    "ADDRESS":"125 E County Line Road, Building 101",
    "Intersection Directions":"",
    "City":"Warminster",
    "State":"PA",
    "ZIP":18974,
    "Plus4":"",
    "Groups With Access Code":"Public",
    "EV Level1 EVSE Num":null,
    "EV Level2 EVSE Num":1,
    "EV DC Fast Count":null,
    "EVNETWORK":"Blink Network",
    "EV Connector Types":"J1772"
    }
  },
  {
    "type": "Feature",
    "geometry": {
       "type": "Point",
       "coordinates":  [ -75.2030576,40.0741932 ]
    },
    "properties": {
    "Fuel Type Code":"ELEC",
    "NAME":"Chestnut Hill Hotel - Tesla",
    "ADDRESS":"8229 Germantown Ave",
    "Intersection Directions":"",
    "City":"Philadelphia",
    "State":"PA",
    "ZIP":19118,
    "Plus4":"",
    "Groups With Access Code":"Public",
    "EV Level1 EVSE Num":null,
    "EV Level2 EVSE Num":1,
    "EV DC Fast Count":null,
    "EVNETWORK":"Tesla",
    "EV Connector Types":"TESLA"
    }
  },
  {
    "type": "Feature",
    "geometry": {
       "type": "Point",
       "coordinates":  [ -75.2445431,39.8778654 ]
    },
    "properties": {
    "Fuel Type Code":"ELEC",
    "NAME":"PPA AIRPORT EV",
    "ADDRESS":"1 Arrivals Rd",
    "Intersection Directions":"GARAGE C STAT2; Parking is only permitted if the car is plugged in. The charging stations are located on the first level of Garage C, opposite the doors to the terminal concourse.\nGARAGE C STAT1; Parking is only permitted if the car is plugged in. The charging stations are located on the first level of Garage C, opposite the doors to the terminal concourse.\nGARAGE D STAT 1; Parking is only permitted if the car is plugged in. The charging stations are located on the first level of Garage D, opposite the doors to the terminal concourse.\nGARAGE D STAT 2; Parking is only permitted if the car is plugged in. The charging stations are located on the first level of Garage D, opposite the doors to the terminal concourse.",
    "City":"Philadelphia",
    "State":"PA",
    "ZIP":19153,
    "Plus4":"",
    "Groups With Access Code":"Public",
    "EV Level1 EVSE Num":null,
    "EV Level2 EVSE Num":8,
    "EV DC Fast Count":null,
    "EVNETWORK":"ChargePoint Network",
    "EV Connector Types":"J1772"
    }
  },
  {
    "type": "Feature",
    "geometry": {
       "type": "Point",
       "coordinates":  [ -75.1714152,41.4722498 ]
    },
    "properties": {
    "Fuel Type Code":"ELEC",
    "NAME":"Ledges Hotel - Tesla",
    "ADDRESS":"119 Falls Ave",
    "Intersection Directions":"",
    "City":"Hawley",
    "State":"PA",
    "ZIP":18428,
    "Plus4":"",
    "Groups With Access Code":"Public",
    "EV Level1 EVSE Num":null,
    "EV Level2 EVSE Num":1,
    "EV DC Fast Count":null,
    "EVNETWORK":"Tesla",
    "EV Connector Types":"TESLA"
    }
  },
  {
    "type": "Feature",
    "geometry": {
       "type": "Point",
       "coordinates":  [ -75.3947736,40.0892616 ]
    },
    "properties": {
    "Fuel Type Code":"ELEC",
    "NAME":"King of Prussia Mall",
    "ADDRESS":"160 N. Gulph Road",
    "Intersection Directions":"",
    "City":"King of Prussia",
    "State":"PA",
    "ZIP":19406,
    "Plus4":"",
    "Groups With Access Code":"Public - Card key at all times",
    "EV Level1 EVSE Num":null,
    "EV Level2 EVSE Num":2,
    "EV DC Fast Count":null,
    "EVNETWORK":"SemaCharge Network",
    "EV Connector Types":"J1772"
    }
  },
  {
    "type": "Feature",
    "geometry": {
       "type": "Point",
       "coordinates":  [ -75.154521,39.9480686 ]
    },
    "properties": {
    "Fuel Type Code":"ELEC",
    "NAME":"PARKWAY",
    "ADDRESS":"804 Walnut St",
    "Intersection Directions":"8TH & WALNUT; Station located next to exit facility exit gates",
    "City":"Philadelphia",
    "State":"PA",
    "ZIP":19107,
    "Plus4":"",
    "Groups With Access Code":"Public",
    "EV Level1 EVSE Num":null,
    "EV Level2 EVSE Num":1,
    "EV DC Fast Count":null,
    "EVNETWORK":"ChargePoint Network",
    "EV Connector Types":"J1772"
    }
  },
  {
    "type": "Feature",
    "geometry": {
       "type": "Point",
       "coordinates":  [ -80.040059,40.390894 ]
    },
    "properties": {
    "Fuel Type Code":"ELEC",
    "NAME":"Cochran Nissan",
    "ADDRESS":"3200 W Liberty Ave",
    "Intersection Directions":"",
    "City":"Pittsburgh",
    "State":"PA",
    "ZIP":15216,
    "Plus4":"",
    "Groups With Access Code":"Public - Call ahead",
    "EV Level1 EVSE Num":null,
    "EV Level2 EVSE Num":1,
    "EV DC Fast Count":null,
    "EVNETWORK":"",
    "EV Connector Types":"J1772"
    }
  },
  {
    "type": "Feature",
    "geometry": {
       "type": "Point",
       "coordinates":  [ -75.8688523,41.2253269 ]
    },
    "properties": {
    "Fuel Type Code":"ELEC",
    "NAME":"Breaker Brewing Company - Tesla",
    "ADDRESS":"787 E Northampton St",
    "Intersection Directions":"",
    "City":"Wilkes Barre Township",
    "State":"PA",
    "ZIP":18702,
    "Plus4":"",
    "Groups With Access Code":"Public",
    "EV Level1 EVSE Num":null,
    "EV Level2 EVSE Num":2,
    "EV DC Fast Count":null,
    "EVNETWORK":"Tesla",
    "EV Connector Types":"TESLA"
    }
  },
  {
    "type": "Feature",
    "geometry": {
       "type": "Point",
       "coordinates":  [ -75.210552,40.0068973 ]
    },
    "properties": {
    "Fuel Type Code":"ELEC",
    "NAME":"Crowne Plaza Philadelphia West - Tesla",
    "ADDRESS":"4010 City Ave",
    "Intersection Directions":"",
    "City":"Philadelphia",
    "State":"PA",
    "ZIP":19131,
    "Plus4":"",
    "Groups With Access Code":"Public",
    "EV Level1 EVSE Num":null,
    "EV Level2 EVSE Num":2,
    "EV DC Fast Count":null,
    "EVNETWORK":"Tesla",
    "EV Connector Types":"TESLA"
    }
  },
  {
    "type": "Feature",
    "geometry": {
       "type": "Point",
       "coordinates":  [ -75.1717186,39.8952505 ]
    },
    "properties": {
    "Fuel Type Code":"ELEC",
    "NAME":"NAVY YARD",
    "ADDRESS":"1001 Intrepid Ave",
    "Intersection Directions":"CY NAVY YARD; The station is located in the parking lot, across from the main entrance of the hotel",
    "City":"Philadelphia",
    "State":"PA",
    "ZIP":19112,
    "Plus4":"",
    "Groups With Access Code":"Public",
    "EV Level1 EVSE Num":null,
    "EV Level2 EVSE Num":2,
    "EV DC Fast Count":null,
    "EVNETWORK":"ChargePoint Network",
    "EV Connector Types":"J1772"
    }
  },
  {
    "type": "Feature",
    "geometry": {
       "type": "Point",
       "coordinates":  [ -79.5516741,39.8063305 ]
    },
    "properties": {
    "Fuel Type Code":"ELEC",
    "NAME":"Nemacolin Woodlands Resort - Tesla",
    "ADDRESS":"1001 Lafayette Dr",
    "Intersection Directions":"",
    "City":"Farmington",
    "State":"PA",
    "ZIP":15437,
    "Plus4":"",
    "Groups With Access Code":"Public",
    "EV Level1 EVSE Num":null,
    "EV Level2 EVSE Num":4,
    "EV DC Fast Count":null,
    "EVNETWORK":"Tesla",
    "EV Connector Types":"TESLA"
    }
  },
  {
    "type": "Feature",
    "geometry": {
       "type": "Point",
       "coordinates":  [ -75.1719767,39.9526536 ]
    },
    "properties": {
    "Fuel Type Code":"ELEC",
    "NAME":"William Penn House Parking",
    "ADDRESS":"36 S 19th St",
    "Intersection Directions":"",
    "City":"Philadelphia",
    "State":"PA",
    "ZIP":19103,
    "Plus4":"",
    "Groups With Access Code":"Public",
    "EV Level1 EVSE Num":null,
    "EV Level2 EVSE Num":1,
    "EV DC Fast Count":2,
    "EVNETWORK":"",
    "EV Connector Types":"J1772 CHADEMO"
    }
  },
  {
    "type": "Feature",
    "geometry": {
       "type": "Point",
       "coordinates":  [ -80.0548075,41.0623202 ]
    },
    "properties": {
    "Fuel Type Code":"ELEC",
    "NAME":"Ginger Hill Tavern",
    "ADDRESS":"278 S Main St",
    "Intersection Directions":"",
    "City":"Slippery Rock",
    "State":"PA",
    "ZIP":16057,
    "Plus4":"",
    "Groups With Access Code":"Public",
    "EV Level1 EVSE Num":null,
    "EV Level2 EVSE Num":null,
    "EV DC Fast Count":2,
    "EVNETWORK":"Greenlots",
    "EV Connector Types":"CHADEMO J1772COMBO"
    }
  },
  {
    "type": "Feature",
    "geometry": {
       "type": "Point",
       "coordinates":  [ -75.11828613,40.14368057 ]
    },
    "properties": {
    "Fuel Type Code":"ELEC",
    "NAME":"Willow Grove",
    "ADDRESS":"30 Park Avenue",
    "Intersection Directions":"",
    "City":"Willow Grove",
    "State":"PA",
    "ZIP":19090,
    "Plus4":"",
    "Groups With Access Code":"Public - Card key at all times",
    "EV Level1 EVSE Num":null,
    "EV Level2 EVSE Num":1,
    "EV DC Fast Count":null,
    "EVNETWORK":"eVgo Network",
    "EV Connector Types":"J1772"
    }
  },
  {
    "type": "Feature",
    "geometry": {
       "type": "Point",
       "coordinates":  [ -75.0022839,40.1506017 ]
    },
    "properties": {
    "Fuel Type Code":"ELEC",
    "NAME":"Walgreens - Feasterville, PA #7590",
    "ADDRESS":"2 E Street Rd",
    "Intersection Directions":"",
    "City":"Feasterville",
    "State":"PA",
    "ZIP":19053,
    "Plus4":"",
    "Groups With Access Code":"Public - Card key at all times",
    "EV Level1 EVSE Num":null,
    "EV Level2 EVSE Num":1,
    "EV DC Fast Count":null,
    "EVNETWORK":"SemaCharge Network",
    "EV Connector Types":"J1772"
    }
  },
  {
    "type": "Feature",
    "geometry": {
       "type": "Point",
       "coordinates":  [ -80.2135373,40.189231 ]
    },
    "properties": {
    "Fuel Type Code":"ELEC",
    "NAME":"John Sisson Motors",
    "ADDRESS":"470 Washington Rd",
    "Intersection Directions":"",
    "City":"Washington",
    "State":"PA",
    "ZIP":15301,
    "Plus4":"",
    "Groups With Access Code":"Public - Call ahead",
    "EV Level1 EVSE Num":null,
    "EV Level2 EVSE Num":1,
    "EV DC Fast Count":1,
    "EVNETWORK":"",
    "EV Connector Types":"J1772 CHADEMO"
    }
  },
  {
    "type": "Feature",
    "geometry": {
       "type": "Point",
       "coordinates":  [ -75.0287676,40.1026176 ]
    },
    "properties": {
    "Fuel Type Code":"ELEC",
    "NAME":"Walgreens - Philadelphia, PA #7544",
    "ADDRESS":"10000 Bustleton Ave",
    "Intersection Directions":"",
    "City":"Philadelphia",
    "State":"PA",
    "ZIP":19116,
    "Plus4":"",
    "Groups With Access Code":"Public - Card key at all times",
    "EV Level1 EVSE Num":null,
    "EV Level2 EVSE Num":1,
    "EV DC Fast Count":null,
    "EVNETWORK":"SemaCharge Network",
    "EV Connector Types":"J1772"
    }
  },
  {
    "type": "Feature",
    "geometry": {
       "type": "Point",
       "coordinates":  [ -75.282637,40.130208 ]
    },
    "properties": {
    "Fuel Type Code":"ELEC",
    "NAME":"UNIONSTRONG",
    "ADDRESS":"3031A Walton Rd",
    "Intersection Directions":"UNIONSTRONG3; Located at the rear of building A",
    "City":"Plymouth Meeting",
    "State":"PA",
    "ZIP":19462,
    "Plus4":"",
    "Groups With Access Code":"Public",
    "EV Level1 EVSE Num":null,
    "EV Level2 EVSE Num":2,
    "EV DC Fast Count":null,
    "EVNETWORK":"ChargePoint Network",
    "EV Connector Types":"J1772"
    }
  },
  {
    "type": "Feature",
    "geometry": {
       "type": "Point",
       "coordinates":  [ -79.9474558,40.4448384 ]
    },
    "properties": {
    "Fuel Type Code":"ELEC",
    "NAME":"Electric Garage - Tesla",
    "ADDRESS":"4621 Forbes Ave",
    "Intersection Directions":"",
    "City":"Pittsburgh",
    "State":"PA",
    "ZIP":15213,
    "Plus4":"",
    "Groups With Access Code":"Public",
    "EV Level1 EVSE Num":null,
    "EV Level2 EVSE Num":1,
    "EV DC Fast Count":null,
    "EVNETWORK":"Tesla",
    "EV Connector Types":"TESLA"
    }
  },
  {
    "type": "Feature",
    "geometry": {
       "type": "Point",
       "coordinates":  [ -76.015699,40.202287 ]
    },
    "properties": {
    "Fuel Type Code":"ELEC",
    "NAME":"Bowmansville Service Plaza (Milepost 289.9 EB)",
    "ADDRESS":"1350 Reading Road",
    "Intersection Directions":"",
    "City":"Bowmansville",
    "State":"PA",
    "ZIP":17507,
    "Plus4":"",
    "Groups With Access Code":"Public",
    "EV Level1 EVSE Num":null,
    "EV Level2 EVSE Num":1,
    "EV DC Fast Count":2,
    "EVNETWORK":"Blink Network",
    "EV Connector Types":"CHADEMO J1772"
    }
  },
  {
    "type": "Feature",
    "geometry": {
       "type": "Point",
       "coordinates":  [ -75.370979,40.089817 ]
    },
    "properties": {
    "Fuel Type Code":"ELEC",
    "NAME":"King of Prussia Service Plaza (Milepost 328.4 WB)",
    "ADDRESS":"381 West Dekalb Pike",
    "Intersection Directions":"",
    "City":"King of Prussia",
    "State":"PA",
    "ZIP":19406,
    "Plus4":"",
    "Groups With Access Code":"Public",
    "EV Level1 EVSE Num":null,
    "EV Level2 EVSE Num":1,
    "EV DC Fast Count":2,
    "EVNETWORK":"Blink Network",
    "EV Connector Types":"CHADEMO J1772"
    }
  },
  {
    "type": "Feature",
    "geometry": {
       "type": "Point",
       "coordinates":  [ -76.992953,40.243083 ]
    },
    "properties": {
    "Fuel Type Code":"ELEC",
    "NAME":"Sheetz Store #518",
    "ADDRESS":"6054 Carlisle Pike",
    "Intersection Directions":"",
    "City":"Mechanicsburg",
    "State":"PA",
    "ZIP":17050,
    "Plus4":"",
    "Groups With Access Code":"Public",
    "EV Level1 EVSE Num":null,
    "EV Level2 EVSE Num":null,
    "EV DC Fast Count":1,
    "EVNETWORK":"",
    "EV Connector Types":"CHADEMO"
    }
  },
  {
    "type": "Feature",
    "geometry": {
       "type": "Point",
       "coordinates":  [ -75.3093634,40.1028291 ]
    },
    "properties": {
    "Fuel Type Code":"ELEC",
    "NAME":"Conicelli Nissan",
    "ADDRESS":"1333 W Ridge Pike",
    "Intersection Directions":"",
    "City":"Conshohocken",
    "State":"PA",
    "ZIP":19428,
    "Plus4":"",
    "Groups With Access Code":"Public - Call ahead",
    "EV Level1 EVSE Num":null,
    "EV Level2 EVSE Num":1,
    "EV DC Fast Count":null,
    "EVNETWORK":"",
    "EV Connector Types":"J1772"
    }
  },
  {
    "type": "Feature",
    "geometry": {
       "type": "Point",
       "coordinates":  [ -75.548337,40.217462 ]
    },
    "properties": {
    "Fuel Type Code":"ELEC",
    "NAME":"Nissan 42 of Limerick",
    "ADDRESS":"55 Autopark Blvd",
    "Intersection Directions":"",
    "City":"Limerick",
    "State":"PA",
    "ZIP":19468,
    "Plus4":"",
    "Groups With Access Code":"Public - Call ahead",
    "EV Level1 EVSE Num":null,
    "EV Level2 EVSE Num":1,
    "EV DC Fast Count":null,
    "EVNETWORK":"",
    "EV Connector Types":"J1772"
    }
  },
  {
    "type": "Feature",
    "geometry": {
       "type": "Point",
       "coordinates":  [ -79.9933748,40.4446866 ]
    },
    "properties": {
    "Fuel Type Code":"ELEC",
    "NAME":"Pittsburgh Parking Authority - Grant Street Transportation Garage",
    "ADDRESS":"55 11th St",
    "Intersection Directions":"",
    "City":"Pittsburgh ",
    "State":"PA",
    "ZIP":15222,
    "Plus4":"",
    "Groups With Access Code":"Public",
    "EV Level1 EVSE Num":null,
    "EV Level2 EVSE Num":2,
    "EV DC Fast Count":null,
    "EVNETWORK":"",
    "EV Connector Types":"J1772"
    }
  },
  {
    "type": "Feature",
    "geometry": {
       "type": "Point",
       "coordinates":  [ -75.2911222,40.7210921 ]
    },
    "properties": {
    "Fuel Type Code":"ELEC",
    "NAME":"BMW FACILITIES",
    "ADDRESS":"3830 Easton-Nazareth Hwy",
    "Intersection Directions":"NAZARETH 01",
    "City":"Easton",
    "State":"PA",
    "ZIP":18045,
    "Plus4":"",
    "Groups With Access Code":"Public",
    "EV Level1 EVSE Num":null,
    "EV Level2 EVSE Num":2,
    "EV DC Fast Count":null,
    "EVNETWORK":"ChargePoint Network",
    "EV Connector Types":"J1772"
    }
  },
  {
    "type": "Feature",
    "geometry": {
       "type": "Point",
       "coordinates":  [ -77.620844,39.925539 ]
    },
    "properties": {
    "Fuel Type Code":"ELEC",
    "NAME":"Fitzgerald Nissan",
    "ADDRESS":"1436 Lincoln Way E",
    "Intersection Directions":"",
    "City":"Chambersburg",
    "State":"PA",
    "ZIP":17201,
    "Plus4":"",
    "Groups With Access Code":"Public - Call ahead",
    "EV Level1 EVSE Num":null,
    "EV Level2 EVSE Num":1,
    "EV DC Fast Count":null,
    "EVNETWORK":"",
    "EV Connector Types":"J1772"
    }
  },
  {
    "type": "Feature",
    "geometry": {
       "type": "Point",
       "coordinates":  [ -75.159373,39.943104 ]
    },
    "properties": {
    "Fuel Type Code":"ELEC",
    "NAME":"Central Parking",
    "ADDRESS":"1001 South St",
    "Intersection Directions":"",
    "City":"Philadelphia",
    "State":"PA",
    "ZIP":19147,
    "Plus4":"",
    "Groups With Access Code":"Public",
    "EV Level1 EVSE Num":null,
    "EV Level2 EVSE Num":null,
    "EV DC Fast Count":2,
    "EVNETWORK":"",
    "EV Connector Types":"CHADEMO"
    }
  },
  {
    "type": "Feature",
    "geometry": {
       "type": "Point",
       "coordinates":  [ -79.9544171,40.445452 ]
    },
    "properties": {
    "Fuel Type Code":"ELEC",
    "NAME":"University of Pittsburgh Medical Center - University Center",
    "ADDRESS":"130 Lytton Ave",
    "Intersection Directions":"",
    "City":"Pittsburgh",
    "State":"PA",
    "ZIP":15213,
    "Plus4":"",
    "Groups With Access Code":"Public",
    "EV Level1 EVSE Num":null,
    "EV Level2 EVSE Num":1,
    "EV DC Fast Count":null,
    "EVNETWORK":"",
    "EV Connector Types":"J1772"
    }
  },
  {
    "type": "Feature",
    "geometry": {
       "type": "Point",
       "coordinates":  [ -79.2089383,40.4469464 ]
    },
    "properties": {
    "Fuel Type Code":"ELEC",
    "NAME":"Sheetz Store #498",
    "ADDRESS":"610 Route 22 Hwy",
    "Intersection Directions":"",
    "City":"Blairsville",
    "State":"PA",
    "ZIP":15717,
    "Plus4":"",
    "Groups With Access Code":"Public",
    "EV Level1 EVSE Num":null,
    "EV Level2 EVSE Num":null,
    "EV DC Fast Count":1,
    "EVNETWORK":"",
    "EV Connector Types":"CHADEMO"
    }
  },
  {
    "type": "Feature",
    "geometry": {
       "type": "Point",
       "coordinates":  [ -75.1346219,39.9742461 ]
    },
    "properties": {
    "Fuel Type Code":"ELEC",
    "NAME":"Oxford Mills",
    "ADDRESS":"100 W. Oxford Street",
    "Intersection Directions":"This station charges .30 cents a kw\nThis station charges .30 cents a kw",
    "City":"Philadelphia",
    "State":"PA",
    "ZIP":19122,
    "Plus4":"",
    "Groups With Access Code":"Public - Card key at all times",
    "EV Level1 EVSE Num":null,
    "EV Level2 EVSE Num":2,
    "EV DC Fast Count":null,
    "EVNETWORK":"SemaCharge Network",
    "EV Connector Types":"J1772"
    }
  },
  {
    "type": "Feature",
    "geometry": {
       "type": "Point",
       "coordinates":  [ -78.8863796,40.3007599 ]
    },
    "properties": {
    "Fuel Type Code":"ELEC",
    "NAME":"Laurel Nissan",
    "ADDRESS":"1880 Bedford St",
    "Intersection Directions":"",
    "City":"Johnstown",
    "State":"PA",
    "ZIP":15902,
    "Plus4":"",
    "Groups With Access Code":"Public - Call ahead",
    "EV Level1 EVSE Num":null,
    "EV Level2 EVSE Num":1,
    "EV DC Fast Count":null,
    "EVNETWORK":"",
    "EV Connector Types":"J1772"
    }
  },
  {
    "type": "Feature",
    "geometry": {
       "type": "Point",
       "coordinates":  [ -75.1543539,39.9480371 ]
    },
    "properties": {
    "Fuel Type Code":"ELEC",
    "NAME":"PARKWAY",
    "ADDRESS":"800 Walnut St",
    "Intersection Directions":"8TH & WALNUT 2; Station located next to facility exit gates",
    "City":"Philadelphia",
    "State":"PA",
    "ZIP":19107,
    "Plus4":"",
    "Groups With Access Code":"Public",
    "EV Level1 EVSE Num":null,
    "EV Level2 EVSE Num":1,
    "EV DC Fast Count":null,
    "EVNETWORK":"ChargePoint Network",
    "EV Connector Types":"J1772"
    }
  },
  {
    "type": "Feature",
    "geometry": {
       "type": "Point",
       "coordinates":  [ -75.4173303,40.6267562 ]
    },
    "properties": {
    "Fuel Type Code":"ELEC",
    "NAME":"Bethlehem Ford",
    "ADDRESS":"2135 W Union Blvd",
    "Intersection Directions":"",
    "City":"Bethlehem",
    "State":"PA",
    "ZIP":18018,
    "Plus4":"",
    "Groups With Access Code":"Public - Call ahead",
    "EV Level1 EVSE Num":null,
    "EV Level2 EVSE Num":1,
    "EV DC Fast Count":null,
    "EVNETWORK":"",
    "EV Connector Types":"J1772"
    }
  },
  {
    "type": "Feature",
    "geometry": {
       "type": "Point",
       "coordinates":  [ -75.17778,40.034008 ]
    },
    "properties": {
    "Fuel Type Code":"ELEC",
    "NAME":"Germantown Life Enrichment Center",
    "ADDRESS":"5722 Greene Street",
    "Intersection Directions":"",
    "City":"Philadelphia",
    "State":"PA",
    "ZIP":19144,
    "Plus4":"",
    "Groups With Access Code":"Public",
    "EV Level1 EVSE Num":null,
    "EV Level2 EVSE Num":2,
    "EV DC Fast Count":null,
    "EVNETWORK":"Blink Network",
    "EV Connector Types":"J1772"
    }
  },
  {
    "type": "Feature",
    "geometry": {
       "type": "Point",
       "coordinates":  [ -75.345418,40.092512 ]
    },
    "properties": {
    "Fuel Type Code":"ELEC",
    "NAME":"Systems Solutions, Inc.",
    "ADDRESS":"376 Crooked Lane",
    "Intersection Directions":"",
    "City":"King of Prussia",
    "State":"PA",
    "ZIP":19406,
    "Plus4":"",
    "Groups With Access Code":"Public",
    "EV Level1 EVSE Num":null,
    "EV Level2 EVSE Num":1,
    "EV DC Fast Count":null,
    "EVNETWORK":"Blink Network",
    "EV Connector Types":"J1772"
    }
  },
  {
    "type": "Feature",
    "geometry": {
       "type": "Point",
       "coordinates":  [ -80.0145257,40.5733202 ]
    },
    "properties": {
    "Fuel Type Code":"ELEC",
    "NAME":"University of Pittsburgh Medical Center - Passavant Hospital",
    "ADDRESS":"9100 Babcock Blvd",
    "Intersection Directions":"",
    "City":"Pittsburgh",
    "State":"PA",
    "ZIP":15237,
    "Plus4":"",
    "Groups With Access Code":"Public",
    "EV Level1 EVSE Num":null,
    "EV Level2 EVSE Num":1,
    "EV DC Fast Count":null,
    "EVNETWORK":"",
    "EV Connector Types":"J1772"
    }
  },
  {
    "type": "Feature",
    "geometry": {
       "type": "Point",
       "coordinates":  [ -79.9971487,40.4359335 ]
    },
    "properties": {
    "Fuel Type Code":"ELEC",
    "NAME":"Pittsburgh Parking Authority - First Avenue Garage",
    "ADDRESS":"600 First Ave",
    "Intersection Directions":"",
    "City":"Pittsburgh ",
    "State":"PA",
    "ZIP":15219,
    "Plus4":"",
    "Groups With Access Code":"Public",
    "EV Level1 EVSE Num":null,
    "EV Level2 EVSE Num":2,
    "EV DC Fast Count":null,
    "EVNETWORK":"",
    "EV Connector Types":"J1772"
    }
  }
]
}
